State,District,Latitude,Longitude,Population,Male,Female,Literate,Male_Literate,Female_Literate,SC,ST,Housholds_with_Electric_Lighting,Households_with_Internet,Households_with_Computer,Literacy,Male_Literacy,Female_Literacy,Sex_Ratio,Employed,Unemployed
Andhra Pradesh,Adilabad,19.284513950073435,78.81321233480176,2741239,1369597,1371642,1483347,856350,626997,488596,495794,566108,5512,45202,54.0,63.0,46.0,100.0,48.0,52.0
Andhra Pradesh,Anantapur,14.312065561843148,77.4601584478577,4081148,2064495,2016653,2310960,1338474,972486,583135,154127,897970,8606,48299,57.0,65.0,48.0,98.0,50.0,50.0
Andhra Pradesh,Chittoor,13.33109263067696,78.92763898886037,4174064,2090204,2083860,2667878,1484794,1183084,785760,159165,944555,13763,67087,64.0,71.0,57.0,100.0,46.0,54.0
Andhra Pradesh,East Godavari,16.782718320784902,82.2432074720511,5154296,2569688,2584608,3288577,1716933,1571644,945269,213195,1297273,22411,93784,64.0,67.0,61.0,101.0,41.0,59.0
Andhra Pradesh,Guntur,15.884925767634847,80.58657614107885,4887813,2440521,2447292,2960441,1634726,1325715,957407,247089,1186028,19383,80434,61.0,67.0,54.0,100.0,49.0,51.0
Andhra Pradesh,Hyderabad,17.38971555555556,78.46668888888888,3943323,2018575,1924748,2892155,1542688,1349467,247927,48937,869721,149034,274653,73.0,76.0,70.0,95.0,36.0,64.0
Andhra Pradesh,Karimnagar,18.515483193277312,79.43765428571413,3776269,1880800,1895469,2206829,1257238,949591,709757,106745,926768,8831,46584,58.0,67.0,50.0,101.0,50.0,50.0
Andhra Pradesh,Khammam,17.683921325051784,80.67008643892335,2797370,1390988,1406382,1630234,901640,728594,462896,765565,668519,8628,42171,58.0,65.0,52.0,101.0,50.0,50.0
Andhra Pradesh,Krishna,16.143872753151673,81.14805061000413,4517398,2267375,2250023,3009718,1598959,1410759,871063,132464,1163932,30438,101450,67.0,71.0,63.0,99.0,45.0,55.0
Andhra Pradesh,Kurnool,15.43759715142429,77.90086836581717,4053463,2039227,2014236,2127161,1246369,880792,737945,82831,816721,10081,56478,52.0,61.0,44.0,99.0,50.0,50.0
Andhra Pradesh,Mahbubnagar,16.639546224256293,77.98933089244859,4053028,2050386,2002642,1940646,1158386,782260,708954,364269,757821,6153,60812,48.0,56.0,39.0,98.0,51.0,49.0
Andhra Pradesh,Medak,17.889304978038055,78.13778901903379,3033288,1523030,1510258,1637137,953406,683731,537947,168985,604719,8635,47170,54.0,63.0,45.0,99.0,48.0,52.0
Andhra Pradesh,Nalgonda,17.113250515463907,79.16984453608244,3488809,1759772,1729037,2001019,1160757,840262,637385,394279,789225,7715,53777,57.0,66.0,49.0,98.0,50.0,50.0
Andhra Pradesh,Nizamabad,18.429485849056604,78.07523490566035,2551335,1250641,1300694,1389810,790214,599596,371074,192941,545913,5261,35036,54.0,63.0,46.0,104.0,49.0,51.0
Andhra Pradesh,Prakasam,15.489039001601704,80.11665790176184,3397448,1714764,1682684,1904435,1107686,796749,787861,151145,763746,6151,43611,56.0,65.0,47.0,98.0,50.0,50.0
Andhra Pradesh,Srikakulam,18.570900998697432,84.25874814010675,2703114,1341738,1361376,1495381,857824,637557,255664,166118,615432,3988,32280,55.0,64.0,47.0,101.0,48.0,52.0
Andhra Pradesh,Vizianagaram,18.28329696032972,83.45982854198873,2344474,1161477,1182997,1238388,707503,530885,247728,235556,527736,4453,24128,53.0,61.0,45.0,102.0,49.0,51.0
Andhra Pradesh,Warangal,18.01752608695651,79.87422028985509,3512576,1759281,1753295,2065023,1179790,885233,616102,530656,828077,12952,59006,59.0,67.0,50.0,100.0,49.0,51.0
Andhra Pradesh,West Godavari,16.63297943925236,81.45912990654196,3936966,1964918,1972048,2652389,1379223,1273166,811698,109072,1017568,12050,55613,67.0,70.0,65.0,100.0,45.0,55.0
Arunachal Pradesh,Changlang,27.36048479338845,96.37552644628106,148226,76948,71278,73174,44027,29147,0,53878,14593,170,1486,49.0,57.0,41.0,93.0,42.0,58.0
Arunachal Pradesh,East Kameng,27.371194055944056,93.04741486013997,78690,38775,39915,38449,21599,16850,0,72400,5318,57,885,49.0,56.0,42.0,103.0,40.0,60.0
Arunachal Pradesh,East Siang,28.15382352941176,95.06499226006191,99214,50116,49098,62576,34210,28366,0,69979,14231,450,1582,63.0,68.0,58.0,98.0,41.0,59.0
Arunachal Pradesh,Kurung Kumey,28.04853351800553,93.24531994459834,92076,45318,46758,36606,20258,16348,0,90764,3911,95,969,40.0,45.0,35.0,103.0,41.0,59.0
Arunachal Pradesh,Lohit,27.946785273972623,96.59670770547945,145726,76221,69505,83062,48380,34682,0,47410,17157,312,1471,57.0,63.0,50.0,91.0,42.0,58.0
Arunachal Pradesh,Lower Dibang Valley,28.32651730103806,95.76567335640142,54080,28053,26027,31849,18087,13762,0,25974,5932,207,742,59.0,64.0,53.0,93.0,41.0,59.0
Arunachal Pradesh,Lower Subansiri,27.70849297297297,93.96226108108112,83030,41843,41187,54057,29470,24587,0,72911,12493,381,1598,65.0,70.0,60.0,98.0,36.0,64.0
Arunachal Pradesh,Papum Pare,27.273529716981127,93.54468183962264,176573,89182,87391,121048,65794,55254,0,117216,30539,2477,7418,69.0,74.0,63.0,98.0,37.0,63.0
Arunachal Pradesh,Tawang,27.680683962264148,91.82504245283016,49977,29151,20826,26073,17720,8353,0,34811,8635,96,494,52.0,61.0,40.0,71.0,57.0,43.0
Arunachal Pradesh,Tirap,26.94406229508198,95.41470327868862,111975,57604,54371,47974,29313,18661,0,98372,16026,98,888,43.0,51.0,34.0,94.0,45.0,55.0
Arunachal Pradesh,Upper Siang,28.8309244897959,95.00155765306124,35320,18699,16621,18195,10723,7472,0,28468,6198,97,392,52.0,57.0,45.0,89.0,50.0,50.0
Arunachal Pradesh,Upper Subansiri,28.277196566523585,93.8991435622318,83448,41758,41690,45278,24807,20471,0,78323,5373,139,750,54.0,59.0,49.0,100.0,40.0,60.0
Arunachal Pradesh,West Kameng,27.46486582278483,92.65015750452083,83947,46155,37792,48492,29566,18926,0,46380,14188,202,887,58.0,64.0,50.0,82.0,51.0,49.0
Arunachal Pradesh,West Siang,28.106296920289843,94.53510344202908,112274,58168,54106,64746,36777,27969,0,92783,14204,303,1300,58.0,63.0,52.0,93.0,44.0,56.0
Assam,Barpeta,26.427872264631056,90.97912010178116,1693622,867004,826618,897058,499038,398020,95320,27344,84804,2078,25286,53.0,58.0,48.0,95.0,33.0,67.0
Assam,Bongaigaon,26.45012521994133,90.6734296187684,738804,375818,362986,434078,237114,196964,82784,18835,49866,2523,12959,59.0,63.0,54.0,97.0,35.0,65.0
Assam,Cachar,24.815570668693017,92.86849650455927,1736617,886284,850333,1174128,639946,534182,264897,17569,140205,5316,37541,68.0,72.0,63.0,96.0,35.0,65.0
Assam,Darrang,26.58463215962442,92.04141338028155,928500,475273,453227,487039,268666,218373,40260,8419,45444,1166,12084,52.0,57.0,48.0,95.0,35.0,65.0
Assam,Dhemaji,27.586533438485816,94.71336908517353,686133,351249,334884,423028,237761,185267,44225,325560,28195,1192,10410,62.0,68.0,55.0,95.0,46.0,54.0
Assam,Dibrugarh,27.30612284482757,95.0998282327587,1326335,676434,649901,884531,491361,393170,58876,102871,136685,8817,34479,67.0,73.0,60.0,96.0,42.0,58.0
Assam,Goalpara,26.017277777777807,90.59869891598912,1008183,513292,494891,563577,304302,259275,45094,231570,78641,1364,13524,56.0,59.0,52.0,96.0,36.0,64.0
Assam,Golaghat,26.377219709794485,93.82583397823468,1066888,543161,523727,721764,396475,325289,62298,111765,82345,3073,17636,68.0,73.0,62.0,96.0,45.0,55.0
Assam,Hailakandi,24.457496089385486,92.59154664804475,659296,337890,321406,407366,226836,180530,70659,691,44143,1211,10615,62.0,67.0,56.0,95.0,32.0,68.0
Assam,Jorhat,26.76244824016563,94.30197722567289,1092256,556805,535451,794929,432335,362594,88665,139971,122063,5651,26357,73.0,78.0,68.0,96.0,46.0,54.0
Assam,Kamrup,26.170939452054807,91.58863273972592,1517542,778461,739081,995319,550219,445100,107827,182038,122191,3109,23468,66.0,71.0,60.0,95.0,41.0,59.0
Assam,Karbi Anglong,26.08966454598031,93.11536570271832,956313,490167,466146,557214,314253,242961,44961,538738,53918,1923,11340,58.0,64.0,52.0,95.0,40.0,60.0
Assam,Karimganj,24.69660712250711,92.3679498575498,1228686,625864,602822,795297,435942,359355,157890,1940,70951,1933,24699,65.0,70.0,60.0,96.0,32.0,68.0
Assam,Kokrajhar,26.497246635730868,90.13997470997688,887142,452905,434237,489305,275220,214085,29570,278665,41373,1218,14063,55.0,61.0,49.0,96.0,38.0,62.0
Assam,Lakhimpur,27.14128805970149,94.0775949253732,1042137,529674,512463,683486,375552,307934,81840,249426,60296,1948,15011,66.0,71.0,60.0,97.0,41.0,59.0
Assam,Nagaon,26.26462170626351,92.9306191144708,2823768,1439112,1384656,1710716,921850,788866,266350,115153,195631,5121,45956,61.0,64.0,57.0,96.0,35.0,65.0
Assam,Nalbari,26.46323767605632,91.40598521126763,771639,396006,375633,531771,293184,238587,60216,23364,68313,1631,12360,69.0,74.0,64.0,95.0,35.0,65.0
Assam,Sonitpur,26.73514926829268,92.85197804878044,1924110,983904,940206,1108572,620525,488047,109130,232207,133368,4358,31254,58.0,63.0,52.0,96.0,40.0,60.0
Assam,Tinsukia,27.53549291139241,95.69055949367085,1327929,680231,647698,798322,453449,344873,37688,82066,161718,5135,27948,60.0,67.0,53.0,95.0,42.0,58.0
Bihar,Araria,26.211528119180603,87.30766554934816,2811569,1463333,1348236,1195768,727643,468125,382654,38848,43290,2561,29796,43.0,50.0,35.0,92.0,38.0,62.0
Bihar,Aurangabad,24.774291867469877,84.45986024096379,2540073,1318684,1221389,1466002,868733,597269,612064,1033,44456,2362,31168,58.0,66.0,49.0,93.0,33.0,67.0
Bihar,Aurangabad,24.774291867469877,84.45986024096379,3701282,1924469,1776813,2503837,1430936,1072901,539368,143366,589477,23258,69937,68.0,74.0,60.0,92.0,43.0,57.0
Bihar,Banka,24.832355642023337,86.8664916342413,2034763,1067140,967623,965321,590961,374360,247858,90432,62359,1704,22300,47.0,55.0,39.0,91.0,38.0,62.0
Bihar,Begusarai,25.54302613168723,86.12560144032932,2970541,1567660,1402881,1548673,918507,630166,432270,1597,120373,4644,43127,52.0,59.0,45.0,89.0,32.0,68.0
Bihar,Bhagalpur,25.277192885375477,87.04213814229242,3037766,1615663,1422103,1573066,937669,635397,318569,67180,174534,6764,46929,52.0,58.0,45.0,88.0,32.0,68.0
Bihar,Bhojpur,25.50666439393939,84.49407803030304,2728407,1430380,1298027,1599151,973486,625665,425402,13977,62153,3661,34658,59.0,68.0,48.0,91.0,30.0,70.0
Bihar,Buxar,25.48593018867924,84.08808081760995,1706352,887977,818375,989807,593544,396263,251737,26824,46760,1784,19324,58.0,67.0,48.0,92.0,32.0,68.0
Bihar,Darbhanga,26.146187719298258,85.97387352472099,3937385,2059949,1877436,1816634,1125566,691068,615688,2772,127442,6280,53205,46.0,55.0,37.0,91.0,31.0,69.0
Bihar,Gaya,24.7266541547278,84.94291217765044,4391418,2266566,2124852,2297613,1368803,928810,1334351,3098,112617,6856,57011,52.0,60.0,44.0,94.0,38.0,62.0
Bihar,Gopalganj,26.44874364161851,84.34636127167629,2562012,1267666,1294346,1382998,793905,589093,320064,60807,69375,3707,33596,54.0,63.0,46.0,102.0,28.0,72.0
Bihar,Jamui,24.78418380462726,86.26316298200514,1760405,916064,844341,858588,534385,324203,302649,78793,32633,1839,22414,49.0,58.0,38.0,92.0,41.0,59.0
Bihar,Jehanabad,25.155679045643165,84.9208124481328,1125313,585582,539731,618881,374412,244469,222974,1285,27641,1106,11302,55.0,64.0,45.0,92.0,32.0,68.0
Bihar,Katihar,25.56565356037151,87.70466083591326,3071029,1600430,1470599,1280190,762256,517934,263100,179971,60900,2941,27263,42.0,48.0,35.0,92.0,33.0,67.0
Bihar,Khagaria,25.53558891454964,86.56593256351037,1666886,883786,783100,768028,461153,306875,247161,675,40641,1580,21654,46.0,52.0,39.0,89.0,34.0,66.0
Bihar,Kishanganj,26.324336758321294,87.95045007235886,1690400,866970,823430,745056,439921,305135,113118,64224,58718,1093,14073,44.0,51.0,37.0,95.0,31.0,69.0
Bihar,Lakhisarai,25.183449321266963,86.12825701357468,1000912,526345,474567,507270,305182,202088,153209,8333,44491,1186,8862,51.0,58.0,43.0,90.0,33.0,67.0
Bihar,Madhepura,25.77341929460581,86.8978443983403,2001762,1047559,954203,834577,517666,316911,346275,12532,23236,1397,23309,42.0,49.0,33.0,91.0,39.0,61.0
Bihar,Madhubani,26.41380538172716,86.16328360450552,4487379,2329313,2158066,2155338,1340085,815253,587158,3990,113281,5319,65548,48.0,58.0,38.0,93.0,36.0,64.0
Bihar,Munger,25.198537962962963,86.54173672839504,1367765,729041,638724,801817,473741,328076,183846,21404,90461,2653,17946,59.0,65.0,51.0,88.0,31.0,69.0
Bihar,Muzaffarpur,26.18664417177915,85.32745092024543,4801062,2527497,2273565,2509232,1487117,1022115,751975,5979,180651,10290,73012,52.0,59.0,45.0,90.0,32.0,68.0
Bihar,Nalanda,25.229345508982053,85.48053113772461,2877653,1497060,1380593,1519933,919558,600375,607672,1442,101378,4156,43848,53.0,61.0,43.0,92.0,36.0,64.0
Bihar,Nawada,24.825708836206903,85.61594568965519,2219146,1144668,1074478,1091012,659474,431538,565112,2045,31162,1841,28411,49.0,58.0,40.0,94.0,37.0,63.0
Bihar,Pashchim Champaran,27.16064352201258,84.30265911949685,3935042,2061110,1873932,1759481,1091226,668255,553944,250046,57546,3495,41143,45.0,53.0,36.0,91.0,38.0,62.0
Bihar,Patna,25.40297114503818,85.3198433587787,5838465,3078512,2759953,3459679,2028047,1431632,920918,9069,546859,40692,132582,59.0,66.0,52.0,90.0,32.0,68.0
Bihar,Purba Champaran,26.68129336734693,85.00382155612242,5099371,2681209,2418162,2276957,1407603,869354,649726,12461,74979,7719,70258,45.0,52.0,36.0,90.0,34.0,66.0
Bihar,Purnia,25.81714801901739,87.40447606973065,3264619,1699370,1565249,1332326,805261,527065,390991,139490,86058,4170,33664,41.0,47.0,34.0,92.0,35.0,65.0
Bihar,Rohtas,24.99170460829495,83.9350762672811,2959918,1543546,1416372,1799832,1061783,738049,549546,31650,114893,4594,36279,61.0,69.0,52.0,92.0,31.0,69.0
Bihar,Saharsa,25.821270696721303,86.54670819672135,1900661,997174,903487,804996,506374,298622,317249,6009,41342,1668,19415,42.0,51.0,33.0,91.0,34.0,66.0
Bihar,Samastipur,25.793205563909765,85.94833323308269,4261566,2230003,2031563,2142880,1293575,849305,803128,1884,88021,5379,50918,50.0,58.0,42.0,91.0,32.0,68.0
Bihar,Saran,25.89656077844312,84.82266287425155,3951862,2022821,1929041,2157454,1285767,871687,474066,36786,94787,4509,37442,55.0,64.0,45.0,95.0,26.0,74.0
Bihar,Sheikhpura,25.12472436548223,85.77839390862943,636342,329743,306599,328676,196431,132245,131115,617,20065,631,8873,52.0,60.0,43.0,93.0,35.0,65.0
Bihar,Sheohar,26.458380748663107,85.29539411764709,656246,346673,309573,283698,171645,112053,96655,318,10004,478,6698,43.0,50.0,36.0,89.0,33.0,67.0
Bihar,Sitamarhi,26.56570069686413,85.61172491289203,3423574,1803252,1620322,1436794,885188,551606,405714,2989,66263,3460,42461,42.0,49.0,34.0,90.0,33.0,67.0
Bihar,Siwan,26.1736372013652,84.33766552901022,3330464,1675090,1655374,1930175,1115906,814269,386685,87000,52935,3834,37833,58.0,67.0,49.0,99.0,28.0,72.0
Bihar,Supaul,26.28157893772896,86.78496465201461,2229076,1155283,1073793,1033283,647672,385611,354249,10168,51028,1845,25078,46.0,56.0,36.0,93.0,39.0,61.0
Bihar,Vaishali,25.8134703180212,85.39247597173153,3495021,1844535,1650486,1926740,1152576,774164,738031,2274,70001,4810,39564,55.0,62.0,47.0,89.0,30.0,70.0
Chandigarh,Chandigarh,30.7426,76.75872465753424,1055450,580663,474787,805438,465346,340092,199086,0,231204,44283,78113,76.0,80.0,72.0,82.0,38.0,62.0
Chhattisgarh,Bastar,19.393866751269048,81.52895126903546,1413199,698487,714712,650863,382335,268528,37963,931780,157646,1782,9042,46.0,55.0,38.0,102.0,51.0,49.0
Chhattisgarh,Bilaspur,22.356942982456143,81.99770350877188,381956,192764,189192,287620,155599,132021,98989,10693,79146,1574,6281,75.0,81.0,70.0,98.0,54.0,46.0
Chhattisgarh,Bilaspur,22.356942982456143,81.99770350877188,2663629,1351574,1312055,1596560,932474,664086,552992,498469,519704,8566,30892,60.0,69.0,51.0,97.0,45.0,55.0
Chhattisgarh,Dhamtari,20.554912627291245,81.7569195519348,799781,397897,401884,546833,303924,242909,58581,207633,148926,1016,4804,68.0,76.0,60.0,101.0,50.0,50.0
Chhattisgarh,Durg,21.194463849287164,81.33181639511197,3343872,1682101,1661771,2303378,1284612,1018766,458040,397416,614109,16141,51289,69.0,76.0,61.0,99.0,45.0,55.0
Chhattisgarh,Jashpur,22.77286167664669,83.8703962075848,851669,424747,426922,495415,280656,214759,48844,530378,76783,567,5755,58.0,66.0,50.0,101.0,57.0,43.0
Chhattisgarh,Korba,22.491712499999995,82.57604326923074,1206640,612915,593725,748759,433391,315368,124679,493559,202380,4544,18004,62.0,71.0,53.0,97.0,43.0,57.0
Chhattisgarh,Koriya,23.50412776859501,82.12515636363635,658917,334737,324180,397823,229923,167900,54776,304280,80023,1667,7609,60.0,69.0,52.0,97.0,47.0,53.0
Chhattisgarh,Mahasamund,21.223727037773354,82.65925427435384,1032754,511967,520787,637963,364089,273874,139581,279896,212487,961,5614,62.0,71.0,53.0,102.0,48.0,52.0
Chhattisgarh,Raigarh,22.008265068493166,83.27797698630134,1493984,750278,743706,951639,542756,408883,224942,505609,297308,3342,13857,64.0,72.0,55.0,99.0,46.0,54.0
Chhattisgarh,Raigarh,22.008265068493166,83.27797698630134,2634200,1344345,1289855,1939994,1059692,880302,134952,305125,547206,38570,96301,74.0,79.0,68.0,96.0,41.0,59.0
Chhattisgarh,Raipur,20.88603153846152,82.20032759615388,4063872,2048186,2015686,2629749,1493158,1136591,724250,476446,728556,20261,59523,65.0,73.0,56.0,98.0,43.0,57.0
Chhattisgarh,Surguja,23.32719278728607,83.23582493887531,2359886,1193129,1166757,1187941,694686,493255,115652,1300628,253131,2737,18983,50.0,58.0,42.0,98.0,49.0,51.0
Daman and Diu,Daman,20.431616666666677,72.8392366071429,191173,124659,66514,150348,104316,46032,4262,15240,49249,1316,4543,79.0,84.0,69.0,53.0,55.0,45.0
Daman and Diu,Junagadh,20.72568199498111,70.83985639899612,2743082,1404356,1338726,1842818,1046981,795837,265793,55571,498326,6628,26991,67.0,75.0,59.0,95.0,41.0,59.0
Goa,North Goa,15.548723418714054,73.80667997909038,818008,416677,401331,663060,351738,311322,17606,56606,173951,23440,56266,81.0,84.0,78.0,96.0,40.0,60.0
Goa,South Goa,15.195278658183785,73.941792596877,640537,322463,318074,502427,264085,238342,7843,92669,138810,17624,44299,78.0,82.0,75.0,99.0,39.0,61.0
Gujarat,Ahmadabad,22.605425564971743,72.23898135593227,7214225,3788051,3426174,5435760,3025463,2410297,759483,89138,1456046,126341,273651,75.0,80.0,70.0,90.0,36.0,64.0
Gujarat,Amreli,21.04832649310872,71.43457637825426,1514190,771049,743141,995459,558180,437279,132915,7322,273331,2538,12765,66.0,72.0,59.0,96.0,43.0,57.0
Gujarat,Anand,22.282718206229863,72.57782051557454,2092745,1087224,1005521,1551253,874481,676772,104465,24824,378310,9902,32523,74.0,80.0,67.0,92.0,40.0,60.0
Gujarat,Banas Kantha,24.258538965517253,71.93205252873561,3120506,1610379,1510127,1704923,1048402,656521,327460,284155,396873,3424,23149,55.0,65.0,43.0,94.0,40.0,60.0
Gujarat,Bharuch,21.75787276237761,72.67326346710801,1551019,805707,745312,1118276,623047,495229,62235,488194,309091,10257,29531,72.0,77.0,66.0,93.0,40.0,60.0
Gujarat,Bhavnagar,21.70219390341736,72.16272632761141,2880365,1490201,1390164,1887255,1087371,799884,157034,9110,500757,7297,28925,66.0,73.0,58.0,93.0,40.0,60.0
Gujarat,Gandhinagar,23.193679790026252,72.67221679790026,1391753,723864,667889,1030494,582686,447808,108608,18204,262539,12107,33662,74.0,80.0,67.0,92.0,38.0,62.0
Gujarat,Jamnagar,22.410600414263328,69.62062005768233,2160119,1114192,1045927,1396534,795140,601394,173895,24187,386538,11573,30384,65.0,71.0,57.0,94.0,39.0,61.0
Gujarat,Junagadh,20.929523011609785,70.54733890140345,2743082,1404356,1338726,1842818,1046981,795837,265793,55571,498326,6628,26991,67.0,75.0,59.0,95.0,41.0,59.0
Gujarat,Kachchh,23.48057203301311,68.82192301497916,2092371,1096737,995634,1252319,739239,513080,258859,24228,403294,9631,31961,60.0,67.0,52.0,91.0,37.0,63.0
Gujarat,Kheda,22.88765312500002,73.018803515625,2299885,1185727,1114158,1660243,942480,717763,115631,40336,372226,5710,24502,72.0,79.0,64.0,94.0,41.0,59.0
Gujarat,Mahesana,23.529355452865065,72.45545194085031,2035064,1056520,978544,1502645,847499,655146,162288,9392,385609,7759,33731,74.0,80.0,67.0,93.0,40.0,60.0
Gujarat,Narmada,21.70666386292833,73.68403208722742,590297,301086,289211,370336,211767,158569,8733,481392,101940,576,4081,63.0,70.0,55.0,96.0,50.0,50.0
Gujarat,Navsari,20.866973318871995,72.86184869848157,1329672,678165,651507,1001909,539471,462438,35464,639659,267679,6726,24397,75.0,80.0,71.0,96.0,45.0,55.0
Gujarat,Panch Mahals,22.80435606837605,73.61984598290586,2390776,1226961,1163815,1440805,858054,582751,100446,721604,398937,3456,19753,60.0,70.0,50.0,95.0,46.0,54.0
Gujarat,Patan,23.80634198473284,71.75162977099237,1343734,694397,649337,837913,494631,343282,123408,13303,223424,2231,12870,62.0,71.0,53.0,94.0,41.0,59.0
Gujarat,Porbandar,21.55092351651571,69.71896987722886,585449,300209,285240,393678,221621,172057,51830,13039,117040,1653,5639,67.0,74.0,60.0,95.0,39.0,61.0
Gujarat,Rajkot,22.40603377715488,70.83679439383323,3804558,1974445,1830113,2725056,1514075,1210981,290169,24017,747352,21785,67370,72.0,77.0,66.0,93.0,39.0,61.0
Gujarat,Sabar Kantha,23.71803594548552,73.13638790459964,2428589,1244231,1184358,1578734,918625,660109,187685,542156,438606,5262,25425,65.0,74.0,56.0,95.0,45.0,55.0
Gujarat,Surat,21.25761372772093,72.93488716344339,6081322,3402224,2679098,4571410,2687468,1883942,158115,856952,1252452,55694,149331,75.0,79.0,70.0,79.0,42.0,58.0
Gujarat,Surendranagar,22.82672007299272,71.48358740875906,1756268,909917,846351,1093626,643221,450405,179461,21453,302068,2975,15309,62.0,71.0,53.0,93.0,41.0,59.0
Gujarat,The Dangs,20.801633877551023,73.6883518367347,228291,113821,114470,140968,77314,63654,992,216073,29794,137,1393,62.0,68.0,56.0,101.0,52.0,48.0
Gujarat,Vadodara,22.26133739279589,73.49433010291594,4165626,2153736,2011890,2893080,1614087,1278993,221629,1149901,798277,53606,117818,69.0,75.0,64.0,93.0,41.0,59.0
Gujarat,Valsad,20.44238231644259,72.9148584798345,1705678,887222,818456,1170657,655528,515129,38237,902794,329218,11020,31285,69.0,74.0,63.0,92.0,44.0,56.0
Haryana,Ambala,30.3503672316384,76.94970310734456,1128350,598703,529647,818025,461288,356737,296246,0,199681,12899,32767,72.0,77.0,67.0,88.0,33.0,67.0
Haryana,Bhiwani,28.728868064516128,76.02110225806452,1634445,866672,767773,1069871,643158,426713,341162,0,266244,5292,25236,65.0,74.0,56.0,89.0,38.0,62.0
Haryana,Faridabad,28.14873109756098,77.32718536585368,1809733,966110,843623,1272739,734940,537799,223799,0,333171,43437,82673,70.0,76.0,64.0,87.0,32.0,68.0
Haryana,Fatehabad,29.57298318584072,75.54608716814157,942011,495360,446651,557578,327471,230107,284357,0,153301,3210,13142,59.0,66.0,52.0,90.0,39.0,61.0
Haryana,Gurgaon,28.043894789579163,77.01935130260523,1514432,816690,697742,1111116,638666,472450,197937,0,305751,67087,102343,73.0,78.0,68.0,85.0,36.0,64.0
Haryana,Hisar,29.23628731117825,75.84324682779452,1743931,931562,812369,1114311,670200,444111,408785,0,285004,10132,33400,64.0,72.0,55.0,87.0,40.0,60.0
Haryana,Jhajjar,28.59651868131869,76.61137142857145,958405,514667,443738,676091,399480,276611,170448,0,168558,5034,19241,71.0,78.0,62.0,86.0,34.0,66.0
Haryana,Jind,29.45149821958457,76.29598575667653,1334152,713006,621146,832758,502049,330709,282351,0,222462,5263,23750,62.0,70.0,53.0,87.0,39.0,61.0
Haryana,Kaithal,29.96068539094649,76.37698930041155,1074304,571003,503301,646529,385782,260747,247513,0,187349,3724,15301,60.0,68.0,52.0,88.0,35.0,65.0
Haryana,Karnal,29.703200647249204,76.87488025889972,1505324,797712,707612,978013,564516,413497,339604,0,267223,11163,29253,65.0,71.0,58.0,89.0,34.0,66.0
Haryana,Kurukshetra,30.05652659846548,76.78774680306903,964655,510976,453679,646893,370828,276065,215128,0,171908,7356,21951,67.0,73.0,61.0,89.0,35.0,65.0
Haryana,Mahendragarh,28.1352161458333,76.14018072916659,922088,486665,435423,630255,380440,249815,156314,0,135455,2624,13908,68.0,78.0,57.0,89.0,37.0,63.0
Haryana,Panchkula,30.700897142857134,76.97173238095236,561293,299679,261614,405318,229862,175456,101830,0,103455,18615,32174,72.0,77.0,67.0,87.0,38.0,62.0
Haryana,Panipat,29.34352134146342,76.92895914634147,1205437,646857,558580,786599,464136,322463,206213,0,209965,10024,26719,65.0,72.0,58.0,86.0,34.0,66.0
Haryana,Rewari,28.19164714828897,76.55956007604564,900332,474335,425997,636947,375453,261494,182606,0,152651,5121,18092,71.0,79.0,61.0,90.0,38.0,62.0
Haryana,Rohtak,28.892517647058817,76.53123235294117,1061204,568479,492725,747582,436025,311557,216889,0,193120,8482,27225,70.0,77.0,63.0,87.0,33.0,67.0
Haryana,Sirsa,29.63583446327684,74.90970480225988,1295189,682582,612607,782897,456968,325929,387381,0,215527,6287,22706,60.0,67.0,53.0,90.0,39.0,61.0
Himachal Pradesh,Bilaspur,31.3780422907489,76.65316079295157,381956,192764,189192,287620,155599,132021,98989,10693,79146,1574,6281,75.0,81.0,70.0,98.0,54.0,46.0
Himachal Pradesh,Bilaspur,31.3780422907489,76.65316079295157,2663629,1351574,1312055,1596560,932474,664086,552992,498469,519704,8566,30892,60.0,69.0,51.0,97.0,45.0,55.0
Himachal Pradesh,Chamba,32.66741814595661,76.39354063116366,519080,261320,257760,323842,186064,137778,111690,135500,96082,1615,5117,62.0,71.0,53.0,99.0,57.0,43.0
Himachal Pradesh,Hamirpur,31.67668481012659,76.49767088607594,454768,217070,237698,358091,180555,177536,109256,3044,104120,2521,7525,79.0,83.0,75.0,110.0,53.0,47.0
Himachal Pradesh,Hamirpur,31.67668481012659,76.49767088607594,1104285,593537,510748,653299,408125,245174,241198,474,55929,1196,11037,59.0,69.0,48.0,86.0,40.0,60.0
Himachal Pradesh,Kangra,32.14093603238864,76.41205910931173,1510075,750591,759484,1152640,606443,546197,319385,84564,330081,8053,22753,76.0,81.0,72.0,101.0,45.0,55.0
Himachal Pradesh,Kinnaur,31.60667184065933,78.51613736263741,84121,46249,37872,60699,36697,24002,14750,48746,17865,354,2563,72.0,79.0,63.0,82.0,67.0,33.0
Himachal Pradesh,Kullu,31.90911922077925,77.40922649350647,437903,225452,212451,307672,174550,133122,122659,16822,91322,2623,7010,70.0,77.0,63.0,94.0,61.0,39.0
Himachal Pradesh,Mandi,31.635805940594054,76.96556930693067,999777,498065,501712,723747,393669,330078,293739,12787,214491,5333,16401,72.0,79.0,66.0,101.0,57.0,43.0
Himachal Pradesh,Shimla,31.155725451807253,77.62573042168668,814010,425039,388971,612642,342846,269796,215777,8755,172754,9177,24127,75.0,81.0,69.0,92.0,53.0,47.0
Himachal Pradesh,Sirmaur,30.682764453961443,77.43184689507493,529855,276289,253566,362645,205617,157028,160745,11262,91509,2220,8593,68.0,74.0,62.0,92.0,53.0,47.0
Himachal Pradesh,Solan,31.03864311926604,76.94442140672783,580320,308754,271566,428578,244372,184206,164536,25645,119866,5250,14478,74.0,79.0,68.0,88.0,51.0,49.0
Himachal Pradesh,Una,31.58330388349513,76.18353932038836,521173,263692,257481,399715,213281,186434,115491,8601,105929,2412,8238,77.0,81.0,72.0,98.0,41.0,59.0
Jammu and Kashmir,Doda,33.359614675767915,76.07163720136518,409936,213641,196295,219083,138620,80463,53408,39216,61831,596,3077,53.0,65.0,41.0,92.0,37.0,63.0
Jammu and Kashmir,Jammu,32.713199095022645,74.8477520361991,1529958,813821,716137,1137135,641916,495219,377991,69193,294739,19905,46657,74.0,79.0,69.0,88.0,33.0,67.0
Jammu and Kashmir,Kargil,33.565994894894914,76.63675315315312,140802,77785,63017,86236,56301,29935,18,122336,15824,235,1005,61.0,72.0,48.0,81.0,37.0,63.0
Jammu and Kashmir,Kathua,32.51781678321678,75.58901398601404,616435,326109,290326,389204,228499,160705,141224,53307,109422,1443,6112,63.0,70.0,55.0,89.0,33.0,67.0
Jammu and Kashmir,Pulwama,33.88414418604652,75.00921860465118,560440,293064,267376,293958,178326,115632,402,22607,73629,1537,5293,52.0,61.0,43.0,91.0,34.0,66.0
Jammu and Kashmir,Punch,33.791241290322574,74.29593161290322,476835,251899,224936,261724,163333,98391,556,176101,62900,346,3342,55.0,65.0,44.0,89.0,34.0,66.0
Jammu and Kashmir,Srinagar,34.27312898550724,75.11021159420288,1236829,651124,585705,748584,431746,316838,1068,8935,165403,16413,33831,61.0,66.0,54.0,90.0,33.0,67.0
Jammu and Kashmir,Udhampur,33.04770670731707,75.15286951219511,554985,296784,258201,322354,197543,124811,138569,56309,73999,1214,5744,58.0,67.0,48.0,87.0,44.0,56.0
Jharkhand,Bokaro,23.6814965034965,85.98398374125864,2062330,1072807,989523,1273520,759088,514432,299227,255626,274726,9754,37997,62.0,71.0,52.0,92.0,33.0,67.0
Jharkhand,Chatra,24.11619945750453,84.93295804701627,1042886,533935,508951,510061,303902,206159,340553,45563,27037,590,9115,49.0,57.0,41.0,95.0,38.0,62.0
Jharkhand,Deoghar,24.33070100755672,86.75697632241814,1492073,775022,717051,793538,489837,303701,190036,180962,130193,1944,13550,53.0,63.0,42.0,93.0,37.0,63.0
Jharkhand,Dhanbad,23.854509090909097,86.40372924901185,2684487,1405956,1278531,1722204,1014950,707254,437309,233119,427173,11568,46646,64.0,72.0,55.0,91.0,31.0,69.0
Jharkhand,Dumka,24.275006125574265,87.27662450229711,1321442,668514,652928,672409,406275,266134,79614,571077,62110,1193,10396,51.0,61.0,41.0,98.0,47.0,53.0
Jharkhand,Garhwa,24.082114689265527,83.68664265536722,1322784,683575,639209,653476,405161,248315,319946,205874,29373,565,8881,49.0,59.0,39.0,94.0,43.0,57.0
Jharkhand,Giridih,24.30578509874329,86.08710915619386,2445474,1258098,1187376,1253475,783736,469739,325493,238188,125431,1944,19976,51.0,62.0,40.0,94.0,42.0,58.0
Jharkhand,Godda,24.8189,87.2941735483871,1313551,677927,635624,604519,376212,228307,115567,279208,43230,874,11925,46.0,55.0,36.0,94.0,42.0,58.0
Jharkhand,Gumla,23.078532948929148,84.55056787479396,1025213,514390,510823,559720,321795,237925,32459,706754,31687,831,7807,55.0,63.0,47.0,99.0,48.0,52.0
Jharkhand,Jamtara,23.97873318077801,86.95325080091534,791042,404830,386212,426312,258260,168052,72885,240489,49419,808,4959,54.0,64.0,44.0,95.0,41.0,59.0
Jharkhand,Latehar,23.72511185840708,84.48298743362837,726978,369666,357312,350682,209706,140976,154910,331096,38194,340,6240,48.0,57.0,39.0,97.0,43.0,57.0
Jharkhand,Lohardaga,23.488796043165483,84.6605169064748,461790,232629,229161,259707,149568,110139,15330,262734,28769,351,2954,56.0,64.0,48.0,99.0,48.0,52.0
Jharkhand,Pakur,24.57260428082189,87.69691969178076,900422,452661,447761,352881,206989,145892,28469,379054,31414,328,4535,39.0,46.0,33.0,99.0,45.0,55.0
Jharkhand,Palamu,24.196925968109337,84.20310842824594,1939869,1006302,933567,1024563,621706,402857,536382,181208,68238,2155,19981,53.0,62.0,43.0,93.0,37.0,63.0
Jharkhand,Ranchi,23.184235061391547,85.31781937244203,2914253,1494937,1419316,1911433,1085244,826189,152943,1042016,350908,22538,76565,66.0,73.0,58.0,95.0,39.0,61.0
Jharkhand,Sahibganj,24.93667989690721,87.68264097938142,1150567,589391,561176,483263,287303,195960,72341,308343,34879,591,9563,42.0,49.0,35.0,95.0,43.0,57.0
Jharkhand,Simdega,22.608760391198054,84.59193691931536,599578,300309,299269,343483,191991,151492,44674,424407,16865,423,4649,57.0,64.0,51.0,100.0,48.0,52.0
Karnataka,Bagalkot,16.15860676328503,75.64526070853468,1889752,950111,939641,1113412,641388,472024,319149,97203,301389,3745,26297,59.0,68.0,50.0,99.0,43.0,57.0
Karnataka,Bangalore Rural,12.936827087794448,77.47369314775169,990923,509172,481751,688749,385311,303438,213700,52903,214253,3729,17066,70.0,76.0,63.0,95.0,46.0,54.0
Karnataka,Belgaum,16.16107219152853,74.72329042357275,4779661,2423063,2356598,3052032,1725548,1326484,577418,297198,808827,17560,73497,64.0,71.0,56.0,97.0,44.0,56.0
Karnataka,Bellary,15.074377548209377,76.47228471074374,2452595,1236954,1215641,1421621,813440,608181,517409,451406,440374,9626,40190,58.0,66.0,50.0,98.0,46.0,54.0
Karnataka,Bidar,17.950361730769224,77.19459961538459,1703300,870665,832635,1042673,597198,445475,399785,235822,271439,3971,36072,61.0,69.0,54.0,96.0,41.0,59.0
Karnataka,Bijapur,16.84015316666667,75.95909166666665,255230,128663,126567,86919,54076,32843,10122,204189,12516,117,1462,34.0,42.0,26.0,98.0,53.0,47.0
Karnataka,Bijapur,16.84015316666667,75.95909166666665,2177331,1111022,1066309,1248268,730566,517702,442773,39314,326594,4987,36571,57.0,66.0,49.0,96.0,43.0,57.0
Karnataka,Chikmagalur,13.425288289676422,75.67626502311249,1137961,566622,571339,818345,438257,380088,253651,44970,238505,4510,18727,72.0,77.0,67.0,101.0,50.0,50.0
Karnataka,Chitradurga,14.29102220394736,76.57821957236843,1659456,840843,818613,1087392,607188,480204,389117,302554,307257,5711,28897,66.0,72.0,59.0,97.0,52.0,48.0
Karnataka,Davanagere,14.330414586709884,75.91723841166937,1945497,986400,959097,1308540,720637,587903,392595,233112,372671,7320,39416,67.0,73.0,61.0,97.0,45.0,55.0
Karnataka,Dharwad,15.343831376975173,75.13831264108359,1847023,937206,909817,1301664,711776,589888,177855,87548,347962,15013,49585,70.0,76.0,65.0,97.0,42.0,58.0
Karnataka,Gadag,15.507128256880746,75.64861302752298,1064570,537147,527423,700177,397178,302999,174196,61654,198064,3373,15625,66.0,74.0,57.0,98.0,47.0,53.0
Karnataka,Gulbarga,17.070459515951594,76.87503850385033,2566326,1301755,1264571,1427368,828359,599009,648782,65259,404767,9752,52483,56.0,64.0,47.0,97.0,42.0,58.0
Karnataka,Hassan,12.945098749999998,76.11049549999997,1776421,883667,892754,1225256,668836,556420,345031,32329,400702,4851,23444,69.0,76.0,62.0,101.0,51.0,49.0
Karnataka,Haveri,14.737582809224318,75.3961230607966,1597668,819128,778540,1085443,603793,481650,219976,141380,295937,2456,17819,68.0,74.0,62.0,95.0,46.0,54.0
Karnataka,Kodagu,12.39684468085106,75.79336595744688,554519,274608,279911,412877,215302,197575,73584,58054,113931,3308,10758,74.0,78.0,71.0,102.0,50.0,50.0
Karnataka,Kolar,13.312799881235172,78.01376947743476,1536401,776396,760005,1016219,564110,452109,465867,78875,309494,5051,27235,66.0,73.0,59.0,98.0,47.0,53.0
Karnataka,Koppal,15.651253271028034,76.1617048598131,1389920,699926,689994,809085,468785,340300,258608,164271,223166,2135,15263,58.0,67.0,49.0,99.0,47.0,53.0
Karnataka,Mandya,12.574901806239744,76.81570098522172,1805769,905085,900684,1149649,638668,510981,265294,22402,391033,3367,20265,64.0,71.0,57.0,100.0,48.0,52.0
Karnataka,Mysore,12.248100259403367,76.52881802853437,3001127,1511600,1489527,1962180,1063766,898414,536643,334547,640868,28397,80086,65.0,70.0,60.0,99.0,44.0,56.0
Karnataka,Raichur,16.050795353982295,76.87368606194688,1928812,964511,964301,979769,577213,402556,400933,367071,314547,5200,33903,51.0,60.0,42.0,100.0,47.0,53.0
Karnataka,Shimoga,14.063845885634592,75.17882078103197,1752753,877415,875338,1263016,674938,588078,308158,65412,363835,8791,35207,72.0,77.0,67.0,100.0,45.0,55.0
Karnataka,Tumkur,13.592467760074973,77.02297966260545,2678980,1350594,1328386,1813391,1006024,807367,506901,209559,562769,7971,41751,68.0,74.0,61.0,98.0,51.0,49.0
Karnataka,Udupi,13.450404228534568,74.72009990316337,1177361,562131,615230,926429,465704,460725,75429,52897,224814,9070,24817,79.0,83.0,75.0,109.0,44.0,56.0
Kerala,Alappuzha,9.542602965599087,76.38010796263319,2127789,1013142,1114647,1852797,890552,962245,201211,6574,507913,28842,71593,87.0,88.0,86.0,110.0,38.0,62.0
Kerala,Ernakulam,10.004879301987431,76.26957729035381,3282388,1619557,1662831,2855676,1425723,1429953,268411,16559,771287,88737,184167,87.0,88.0,86.0,103.0,38.0,62.0
Kerala,Idukki,9.80480963855423,77.04586641566264,1108974,552808,556166,923010,471881,451129,145486,55815,244844,8250,24863,83.0,85.0,81.0,101.0,47.0,53.0
Kerala,Kannur,11.941523076923056,75.35209891725934,2523003,1181446,1341557,2138434,1012956,1125478,83350,41371,511167,32653,83940,85.0,86.0,84.0,114.0,33.0,67.0
Kerala,Kasaragod,12.33310309912974,75.07768497134369,1307375,628613,678762,1037492,516476,521016,53283,48857,237670,10378,32484,79.0,82.0,77.0,108.0,35.0,65.0
Kerala,Kollam,8.929388820570157,76.6360775852431,2635375,1246968,1388407,2240273,1074345,1165928,328263,10761,630767,31542,83133,85.0,86.0,84.0,111.0,35.0,65.0
Kerala,Kottayam,9.643701174068417,76.46059673302705,1974551,968289,1006262,1749798,861592,888206,153909,21972,464039,37849,83999,89.0,89.0,88.0,104.0,37.0,63.0
Kerala,Kozhikode,11.392924270557026,75.71158720159153,3086293,1470942,1615351,2615443,1266939,1348504,199191,15228,641660,36791,107602,85.0,86.0,83.0,110.0,31.0,69.0
Kerala,Malappuram,10.97329875666072,75.93910775606876,4112920,1960328,2152592,3311315,1597404,1713911,308266,22990,730119,27909,119918,81.0,81.0,80.0,110.0,26.0,74.0
Kerala,Palakkad,10.784926903553291,76.49980490693744,2809934,1359478,1450456,2239492,1122600,1116892,403833,48972,587583,27162,69440,80.0,83.0,77.0,107.0,37.0,63.0
Kerala,Thiruvananthapuram,8.537101759082221,76.88711502868073,3301427,1581678,1719749,2785408,1354857,1430551,372977,26759,783872,71621,155321,84.0,86.0,83.0,109.0,37.0,63.0
Kerala,Thrissur,10.458932647907687,76.12321940836945,3121200,1480763,1640437,2678548,1282261,1396287,324350,9430,721625,56148,132774,86.0,87.0,85.0,111.0,35.0,65.0
Kerala,Wayanad,11.715277464788736,76.07587007042254,817420,401684,415736,645585,328136,317449,32578,151443,149864,4712,15944,79.0,82.0,76.0,103.0,42.0,58.0
Madhya Pradesh,Anuppur,23.18184220430107,81.86560000000007,749237,379114,370123,436595,254120,182475,74385,358543,81338,1290,7266,58.0,67.0,49.0,98.0,46.0,54.0
Madhya Pradesh,Ashoknagar,24.63098846153845,77.82974493927134,845071,443837,401234,469109,290304,178805,175764,82072,84720,619,6016,56.0,65.0,45.0,90.0,37.0,63.0
Madhya Pradesh,Balaghat,21.80020720640569,80.42170053380796,1701698,842178,859520,1147623,626468,521155,125426,383026,277927,1712,13306,67.0,74.0,61.0,102.0,52.0,48.0
Madhya Pradesh,Barwani,21.702135714285724,74.91004719710673,1385881,699340,686541,549926,313642,236284,87991,962145,181139,1158,8516,40.0,45.0,34.0,98.0,47.0,53.0
Madhya Pradesh,Betul,21.964626315789477,77.7873428189117,1575362,799236,776126,939769,529783,409986,159296,667018,230974,2109,13755,60.0,66.0,53.0,97.0,50.0,50.0
Madhya Pradesh,Bhind,26.35951126187245,78.7618324287653,1703005,926843,776162,1094917,676513,418404,374799,6131,107819,1166,14368,64.0,73.0,54.0,84.0,31.0,69.0
Madhya Pradesh,Bhopal,23.480726143790854,77.39246623093679,2371061,1236130,1134931,1660690,920314,740376,357516,69429,452912,40788,94729,70.0,74.0,65.0,92.0,37.0,63.0
Madhya Pradesh,Burhanpur,21.364567254408065,76.24460478589425,757847,388504,369343,408679,233073,175606,64254,230095,112420,986,5058,54.0,60.0,48.0,95.0,43.0,57.0
Madhya Pradesh,Chhatarpur,24.813637376460004,79.56449299191374,1762375,936121,826254,943033,572010,371023,405313,73597,176056,1880,15567,54.0,61.0,45.0,88.0,43.0,57.0
Madhya Pradesh,Chhindwara,22.227966971713823,78.76413136439254,2090922,1064468,1026454,1294198,731294,562904,232244,769778,344875,3588,20034,62.0,69.0,55.0,96.0,46.0,54.0
Madhya Pradesh,Damoh,23.76624407960196,79.47049303482588,1264219,661873,602346,747715,445737,301978,246337,166295,187731,1432,10504,59.0,67.0,50.0,91.0,45.0,55.0
Madhya Pradesh,Datia,25.90226439560441,78.63916571428574,786754,420157,366597,491445,303815,187630,200270,15061,97696,616,5251,62.0,72.0,51.0,87.0,41.0,59.0
Madhya Pradesh,Dewas,22.7851110021322,76.46088805970157,1563715,805359,758356,925369,550716,374653,292007,272701,270457,3518,16523,59.0,68.0,49.0,94.0,47.0,53.0
Madhya Pradesh,Dhar,22.572681718963157,75.1105620736698,2185793,1112725,1073068,1077338,638479,438859,145436,1222814,349639,2388,18626,49.0,57.0,41.0,96.0,47.0,53.0
Madhya Pradesh,Dindori,22.83738437047757,81.04332966714911,704524,351913,352611,378714,222759,155955,39782,455789,62372,554,6447,54.0,63.0,44.0,100.0,55.0,45.0
Madhya Pradesh,Guna,24.49043927178156,77.2235895968791,1241519,649362,592157,653980,400537,253443,193115,190819,144248,2482,11740,53.0,62.0,43.0,91.0,41.0,59.0
Madhya Pradesh,Gwalior,26.04074441964285,78.12782433035713,2032036,1090327,941709,1357210,803114,554096,393068,72133,306859,15779,46454,67.0,74.0,59.0,86.0,34.0,66.0
Madhya Pradesh,Harda,22.227659781121783,77.07022571819435,570465,294838,275627,352550,203807,148743,92865,159678,95066,986,5376,62.0,69.0,54.0,93.0,40.0,60.0
Madhya Pradesh,Hoshangabad,22.595268801996703,78.02168094841929,1241350,648725,592625,810644,469199,341445,205007,197300,198076,2871,14456,65.0,72.0,58.0,91.0,39.0,61.0
Madhya Pradesh,Indore,22.680265752128648,75.9133801324502,3276697,1699627,1577070,2309130,1289631,1019499,545239,217679,593576,48691,111478,70.0,76.0,65.0,93.0,39.0,61.0
Madhya Pradesh,Jabalpur,23.18525572327043,79.98328754716981,2463289,1277278,1186011,1756468,980307,776161,348029,375231,452023,20443,58601,71.0,77.0,65.0,93.0,41.0,59.0
Madhya Pradesh,Jhabua,22.419578015397768,74.40921616766468,1025048,515023,510025,352081,214582,137499,17427,891818,125411,744,5591,34.0,42.0,27.0,99.0,50.0,50.0
Madhya Pradesh,Katni,23.724416229116937,80.33819665871127,1292042,662013,630029,790773,460583,330190,155717,317699,172416,2179,13094,61.0,70.0,52.0,95.0,42.0,58.0
Madhya Pradesh,Mandla,22.70348712446353,80.38600543633753,1054905,525272,529633,604962,348033,256929,48425,610528,143803,912,9042,57.0,66.0,49.0,101.0,53.0,47.0
Madhya Pradesh,Mandsaur,24.19278764044944,75.43588667736759,1340411,682851,657560,834591,502898,331693,249024,33092,239885,2324,12507,62.0,74.0,50.0,96.0,51.0,49.0
Madhya Pradesh,Morena,26.37313504531724,77.88447341389724,1965970,1068417,897553,1179685,747652,432033,421519,17030,131486,1781,20172,60.0,70.0,48.0,84.0,34.0,66.0
Madhya Pradesh,Neemuch,24.70311893333336,75.06608186666664,826067,422653,403414,508834,307889,200945,111162,71441,145258,1945,8342,62.0,73.0,50.0,95.0,51.0,49.0
Madhya Pradesh,Panna,24.451325840092657,80.21133001158752,1016520,533480,483040,552559,332140,220419,207990,170879,76097,653,8501,54.0,62.0,46.0,91.0,42.0,58.0
Madhya Pradesh,Raisen,23.292518206521724,78.16305495923909,1331597,700358,631239,820220,479093,341127,225891,205006,194373,1141,9931,62.0,68.0,54.0,90.0,39.0,61.0
Madhya Pradesh,Rajgarh,23.785499026425583,76.66431223922116,1545814,790212,755602,804245,488797,315448,295718,53751,231130,1611,12718,52.0,62.0,42.0,96.0,48.0,52.0
Madhya Pradesh,Ratlam,23.503562290502792,75.14895782122909,1455069,738241,716828,825880,485090,340790,198612,409865,213825,3644,14905,57.0,66.0,48.0,97.0,47.0,53.0
Madhya Pradesh,Rewa,24.861184625158856,81.57572465057183,2365106,1225100,1140006,1441757,845572,596185,383508,311985,251132,3406,31194,61.0,69.0,52.0,93.0,42.0,58.0
Madhya Pradesh,Sagar,23.800318709677374,78.71940357771273,2378458,1256257,1122201,1545719,908607,637112,501630,221936,366494,4546,24811,65.0,72.0,57.0,89.0,42.0,58.0
Madhya Pradesh,Satna,24.62777621776502,80.75547048710598,2228935,1157495,1071440,1371781,801051,570730,398569,319975,294702,3754,22751,62.0,69.0,53.0,93.0,41.0,59.0
Madhya Pradesh,Sehore,22.9297199679658,77.06780202883085,1311332,683743,627589,780362,469208,311154,271281,145512,212138,1566,11166,60.0,69.0,50.0,92.0,45.0,55.0
Madhya Pradesh,Seoni,22.33230487804874,79.66053863928111,1379131,695879,683252,864194,485341,378853,130797,519856,228695,1182,10417,63.0,70.0,55.0,98.0,50.0,50.0
Madhya Pradesh,Shahdol,23.44859864559819,81.4596831828442,1066063,540021,526042,604194,348761,255433,89733,476008,113184,1733,10817,57.0,65.0,49.0,97.0,46.0,54.0
Madhya Pradesh,Shajapur,23.566620317220547,76.33555181268885,1512681,780520,732161,894612,543509,351103,353914,37836,232735,1382,10797,59.0,70.0,48.0,94.0,47.0,53.0
Madhya Pradesh,Sheopur,25.78014810996563,77.16911116838484,687861,361784,326077,328025,208201,119824,108391,161448,74770,273,5393,48.0,58.0,37.0,90.0,40.0,60.0
Madhya Pradesh,Shivpuri,25.37802451874367,77.74861600810549,1726050,919795,806255,900846,573242,327604,321515,227802,148128,1852,15304,52.0,62.0,41.0,88.0,44.0,56.0
Madhya Pradesh,Sidhi,24.17547189952905,82.1053783359498,1127033,575912,551121,600785,353030,247755,130202,313304,102228,837,10790,53.0,61.0,45.0,96.0,41.0,59.0
Madhya Pradesh,Tikamgarh,25.14099852104666,78.89357064846428,1445166,760355,684811,747940,459353,288587,361604,67857,132725,1090,10899,52.0,60.0,42.0,90.0,45.0,55.0
Madhya Pradesh,Ujjain,23.319288862745065,75.80383717647058,1986864,1016289,970575,1240990,730817,510173,523869,48730,323379,7501,27733,62.0,72.0,53.0,96.0,45.0,55.0
Madhya Pradesh,Umaria,23.59601063063061,80.90879477477475,644758,330674,314084,356672,210907,145765,58147,300687,67975,839,6360,55.0,64.0,46.0,95.0,45.0,55.0
Madhya Pradesh,Vidisha,23.82838307984792,77.9013507604563,1458875,769568,689307,862918,512344,350574,292144,67603,181510,1926,12888,59.0,67.0,51.0,90.0,38.0,62.0
Maharashtra,Akola,20.746310479041902,77.12122320359276,1813906,932334,881572,1411281,758977,652304,364059,100280,314490,6163,24232,78.0,81.0,74.0,95.0,42.0,58.0
Maharashtra,Amravati,21.16520991810736,77.67583503184723,2888445,1480768,1407677,2251875,1207104,1044771,506374,404128,512492,9438,36185,78.0,82.0,74.0,95.0,43.0,57.0
Maharashtra,Aurangabad,20.0979228832952,75.32072196796334,2540073,1318684,1221389,1466002,868733,597269,612064,1033,44456,2362,31168,58.0,66.0,49.0,93.0,33.0,67.0
Maharashtra,Aurangabad,20.0979228832952,75.32072196796334,3701282,1924469,1776813,2503837,1430936,1072901,539368,143366,589477,23258,69937,68.0,74.0,60.0,92.0,43.0,57.0
Maharashtra,Bhandara,21.211792649727748,80.10950199637024,1200334,605520,594814,899860,488709,411151,200372,88886,227025,2932,13165,75.0,81.0,69.0,98.0,50.0,50.0
Maharashtra,Bid,18.952353340080982,75.69319706477731,2585049,1349106,1235943,1718507,987185,731322,351254,32722,402052,5614,29198,66.0,73.0,59.0,92.0,49.0,51.0
Maharashtra,Buldana,20.56680611183355,76.39017880364096,2586258,1337560,1248698,1879874,1048892,830982,470895,124837,423036,4767,24877,73.0,78.0,67.0,93.0,47.0,53.0
Maharashtra,Chandrapur,20.095609090909075,79.31556380471388,2204307,1123834,1080473,1578615,872565,706050,348365,389441,418666,8239,31419,72.0,78.0,65.0,96.0,48.0,52.0
Maharashtra,Dhule,21.274018690400517,74.58719071837263,2050862,1054031,996831,1293916,723388,570528,127571,647315,315332,6065,27139,63.0,69.0,57.0,95.0,46.0,54.0
Maharashtra,Gondiya,21.225008411214997,80.17522698598128,1322507,661554,660953,1004243,542837,461406,175961,214253,239981,2866,13595,76.0,82.0,70.0,100.0,50.0,50.0
Maharashtra,Hingoli,19.59525302245251,77.09239412780653,1177345,606294,571051,790743,450551,340192,182565,111954,159114,1221,9676,67.0,74.0,60.0,94.0,48.0,52.0
Maharashtra,Jalgaon,20.8828943415638,75.55140421810695,4229917,2197365,2032552,2891882,1629223,1262659,389273,604367,720791,14297,56775,68.0,74.0,62.0,92.0,44.0,56.0
Maharashtra,Jalna,19.984612534818933,75.98473607242339,1959046,1011473,947573,1195523,699428,496095,272266,42263,288895,3791,17236,61.0,69.0,52.0,94.0,48.0,52.0
Maharashtra,Kolhapur,16.44881301587301,74.12897150793648,3876001,1980658,1895343,2825845,1559760,1266085,504461,30206,770005,22269,71879,73.0,79.0,67.0,96.0,44.0,56.0
Maharashtra,Latur,18.348687268993856,76.75812607802874,2454196,1273140,1181056,1650672,932432,718240,480913,57488,381722,6217,29758,67.0,73.0,61.0,93.0,43.0,57.0
Maharashtra,Nagpur,21.196556862745105,79.02166176470584,4653570,2384975,2268595,3673808,1959220,1714588,867713,437571,917626,57964,135750,79.0,82.0,76.0,95.0,40.0,60.0
Maharashtra,Nanded,19.209316983017,77.6829048951049,3361292,1730075,1631217,2189425,1255222,934203,640483,281695,488748,7548,43055,65.0,73.0,57.0,94.0,44.0,56.0
Maharashtra,Nandurbar,21.523175625248147,74.32638757443429,1648295,833170,815125,906509,512099,394410,47985,1141933,186202,2579,17047,55.0,61.0,48.0,98.0,48.0,52.0
Maharashtra,Nashik,20.266912871287143,74.03824168316828,6107187,3157186,2950001,4345366,2397538,1947828,554687,1564369,904710,45039,138887,71.0,76.0,66.0,93.0,45.0,55.0
Maharashtra,Osmanabad,18.19459456066944,75.99495575313809,1657576,861535,796041,1137810,644304,493506,265184,36039,240042,3209,18183,69.0,75.0,62.0,92.0,47.0,53.0
Maharashtra,Parbhani,19.31032425249168,76.70163338870431,1836086,942870,893216,1157814,666291,491523,247308,40514,272486,3982,21196,63.0,71.0,55.0,95.0,45.0,55.0
Maharashtra,Pune,18.51696171428573,74.12922881632647,9429408,4924105,4505303,7171723,3940210,3231513,1180703,348876,1925019,235018,490260,76.0,80.0,72.0,91.0,43.0,57.0
Maharashtra,Raigarh,18.453257637845976,73.0090609418579,1493984,750278,743706,951639,542756,408883,224942,505609,297308,3342,13857,64.0,72.0,55.0,99.0,46.0,54.0
Maharashtra,Raigarh,18.453257637845976,73.0090609418579,2634200,1344345,1289855,1939994,1059692,880302,134952,305125,547206,38570,96301,74.0,79.0,68.0,96.0,41.0,59.0
Maharashtra,Ratnagiri,17.210195070127703,73.25725893866404,1615069,761121,853948,1199392,619012,580380,66948,20374,367352,7752,31062,74.0,81.0,68.0,112.0,44.0,56.0
Maharashtra,Sangli,17.154930181086502,74.70713822937628,2822143,1435728,1386415,2049467,1121550,927917,353093,18333,485126,13212,49056,73.0,78.0,67.0,97.0,43.0,57.0
Maharashtra,Satara,17.6737908974359,74.18052064102558,3003741,1510842,1492899,2225694,1201034,1024660,323236,29635,562653,14093,57423,74.0,79.0,69.0,99.0,45.0,55.0
Maharashtra,Sindhudurg,16.170948049777163,73.51329008172343,849651,417332,432319,666067,348289,317778,55586,6976,194228,3517,15721,78.0,83.0,74.0,104.0,41.0,59.0
Maharashtra,Solapur,17.837357937584812,75.42394823609216,4317756,2227852,2089904,2910676,1651266,1259410,649745,77592,595560,15145,59296,67.0,74.0,60.0,94.0,44.0,56.0
Maharashtra,Thane,19.698767747440264,72.79882742564581,11060148,5865078,5195070,8227161,4591396,3635765,730089,1542451,2231800,256170,551643,74.0,78.0,70.0,89.0,41.0,59.0
Maharashtra,Wardha,20.80743024390242,78.57259105691062,1300774,668385,632389,1019458,552617,466841,188830,149507,266155,4313,16260,78.0,83.0,74.0,95.0,47.0,53.0
Maharashtra,Washim,20.282282394366213,77.25502394366208,1197160,620302,576858,869917,487703,382214,229462,80471,196022,1875,10757,73.0,79.0,66.0,93.0,48.0,52.0
Maharashtra,Yavatmal,20.04258346738159,78.05326371760479,2772348,1419965,1352383,2022574,1115980,906594,328518,514057,446516,6094,29917,73.0,79.0,67.0,95.0,49.0,51.0
Manipur,Bishnupur,24.50712111801243,93.8246236024845,237399,118782,118617,156333,87313,69020,22113,3287,34364,676,3447,66.0,74.0,58.0,100.0,46.0,54.0
Manipur,Chandel,24.2635812987013,94.09443844155844,144182,74579,69603,90302,51053,39249,540,128280,18764,184,1782,63.0,68.0,56.0,93.0,53.0,47.0
Manipur,Churachandpur,24.30309718875504,93.38671506024085,274143,138820,135323,195935,104013,91922,443,254787,29894,837,4496,71.0,75.0,68.0,97.0,45.0,55.0
Manipur,Senapati,25.08465586034914,94.03366234413956,479148,247323,231825,264477,148012,116465,1000,419210,22798,256,2170,55.0,60.0,50.0,94.0,49.0,51.0
Manipur,Tamenglong,24.98312942238265,93.49450740072204,140651,72371,68280,85006,47403,37603,22,134626,11541,125,1362,60.0,65.0,55.0,94.0,50.0,50.0
Manipur,Thoubal,24.545392553191498,93.97959893617023,422168,210845,211323,269304,152617,116687,40593,1808,49507,880,5110,64.0,72.0,55.0,100.0,46.0,54.0
Manipur,Ukhrul,25.05900314960629,94.44129566929138,183998,94718,89280,129829,70148,59681,248,173606,14026,276,2437,71.0,74.0,67.0,94.0,48.0,52.0
Meghalaya,East Garo Hills,25.82728228228228,90.64684924924916,317917,161223,156694,192147,102513,89634,509,305180,24550,288,2368,60.0,64.0,57.0,97.0,40.0,60.0
Meghalaya,East Khasi Hills,25.303763888888884,91.75922519841272,825922,410749,415173,578030,287270,290760,5642,661158,135941,5032,19306,70.0,70.0,70.0,101.0,40.0,60.0
Meghalaya,Jaintia Hills,25.33959557069844,92.37608160136298,395124,196285,198839,187527,87371,100156,1317,376099,41677,510,4333,47.0,45.0,50.0,101.0,39.0,61.0
Meghalaya,South Garo Hills,25.240568578553614,90.64560349127176,142334,73170,69164,82062,45003,37059,319,134237,10940,179,1625,58.0,62.0,54.0,95.0,37.0,63.0
Meghalaya,West Garo Hills,25.495285185185185,90.03709947089942,643291,324159,319132,358702,193438,165264,8810,474009,51301,1630,8872,56.0,60.0,52.0,98.0,40.0,60.0
Meghalaya,West Khasi Hills,25.500889926739926,91.25364542124538,383461,193715,189746,230678,117307,113371,168,375097,32873,149,2462,60.0,61.0,60.0,98.0,43.0,57.0
Mizoram,Aizawl,23.90781335453101,92.85359459459472,400309,199270,201039,340595,169547,171048,627,373542,79804,4019,21093,85.0,85.0,85.0,101.0,44.0,56.0
Mizoram,Champhai,23.54166580976866,93.24221799485862,125745,63388,62357,100802,51440,49362,17,123466,23948,186,2263,80.0,81.0,79.0,98.0,48.0,52.0
Mizoram,Kolasib,24.2020004347826,92.73470391304348,83955,42918,41037,65895,34147,31748,84,73609,14853,367,1986,78.0,80.0,77.0,96.0,44.0,56.0
Mizoram,Lawngtlai,22.36102843137253,92.66964156862753,117894,60599,57295,62861,36444,26417,146,112354,9283,162,1329,53.0,60.0,46.0,95.0,39.0,61.0
Mizoram,Lunglei,23.007717036172675,92.63512555425892,161428,82891,78537,121122,64515,56607,178,153533,26394,482,3725,75.0,78.0,72.0,95.0,48.0,52.0
Mizoram,Mamit,23.73852942502819,92.4330803833147,86364,44828,41536,60191,32977,27214,51,82080,12158,90,1073,70.0,74.0,66.0,93.0,46.0,54.0
Mizoram,Saiha,22.35744801061008,93.02827931034489,56574,28594,27980,42233,21861,20372,83,54642,7400,168,1194,75.0,76.0,73.0,98.0,34.0,66.0
Mizoram,Serchhip,23.263864705882344,92.914158496732,64937,32851,32086,54476,27598,26878,32,62889,12315,131,987,84.0,84.0,84.0,98.0,50.0,50.0
Nagaland,Dimapur,25.814176811594223,93.75074057971014,378811,197394,181417,278037,150142,127895,0,223989,71413,3303,12077,73.0,76.0,70.0,92.0,40.0,60.0
Nagaland,Kohima,25.60311428571428,93.78600657596373,267988,138966,129022,197489,107038,90451,0,224738,50724,1928,7982,74.0,77.0,70.0,93.0,43.0,57.0
Nagaland,Mokokchung,26.478911764705888,94.522426006192,194622,101092,93530,159494,83479,76015,0,178431,40154,537,2728,82.0,83.0,81.0,93.0,51.0,49.0
Nagaland,Mon,26.69207374301676,95.03072988826828,250260,131753,118507,119626,67432,52194,0,238285,14398,178,2844,48.0,51.0,44.0,90.0,59.0,41.0
Nagaland,Phek,25.63272986577182,94.56814563758392,163418,83743,79675,105893,57926,47967,0,157146,36182,170,1558,65.0,69.0,60.0,95.0,49.0,51.0
Nagaland,Tuensang,26.21104453280316,94.85809880715708,196596,101933,94663,117511,63653,53858,0,190916,24998,155,2251,60.0,62.0,57.0,93.0,50.0,50.0
Nagaland,Wokha,26.202611551155112,94.1990815181518,166343,84505,81838,128208,67385,60823,0,156621,25268,198,1757,77.0,80.0,74.0,97.0,47.0,53.0
Nagaland,Zunheboto,26.028178205128206,94.50026666666668,140757,71217,69540,102881,53504,49377,0,136561,28846,261,2008,73.0,75.0,71.0,98.0,56.0,44.0
Orissa,Baleshwar,21.48570932311624,87.08085828011933,2320529,1185787,1134742,1621232,902359,718873,478586,275678,296834,7370,28289,70.0,76.0,63.0,96.0,40.0,60.0
Orissa,Bhadrak,20.95262735257214,86.81496204516931,1506337,760260,746077,1094140,596269,497871,334896,30428,164636,2637,15609,73.0,78.0,67.0,98.0,31.0,69.0
Orissa,Cuttack,20.407640646029623,85.7776810228802,2624470,1352760,1271710,2011469,1103033,908436,498633,93745,349587,15046,40589,77.0,82.0,71.0,94.0,36.0,64.0
Orissa,Dhenkanal,20.79887159353349,85.53226836027711,1192811,612593,580218,829910,464093,365817,234079,162056,117172,1810,10600,70.0,76.0,63.0,95.0,37.0,63.0
Orissa,Gajapati,19.121080882352945,84.14015091911759,577817,282882,294935,262537,153663,108874,39175,313714,63112,635,5523,45.0,54.0,37.0,104.0,51.0,49.0
Orissa,Ganjam,19.2632617564534,84.80297710437702,3529031,1779218,1749813,2210050,1262652,947398,688235,118928,405298,9049,41059,63.0,71.0,54.0,98.0,43.0,57.0
Orissa,Jharsuguda,21.827058566978184,83.93581682242987,579505,296690,282815,405879,228092,177787,104620,176758,81433,2498,7555,70.0,77.0,63.0,95.0,43.0,57.0
Orissa,Kalahandi,19.784253092783523,83.1124043814433,1576869,787101,789768,802036,484177,317859,286580,449456,91171,1953,12622,51.0,62.0,40.0,100.0,48.0,52.0
Orissa,Kandhamal,20.092878624813142,84.02216352765326,733110,359945,373165,399786,233900,165886,115544,392820,28736,768,6609,55.0,65.0,44.0,104.0,48.0,52.0
Orissa,Kendrapara,20.606319815982264,86.83763247572003,1440361,717814,722547,1089265,579970,509295,309780,9484,173107,1628,11836,76.0,81.0,70.0,101.0,32.0,68.0
Orissa,Khordha,20.054162322274863,85.52234834123229,2251673,1167137,1084536,1749936,957515,792421,297472,115051,349860,35701,75588,78.0,82.0,73.0,93.0,35.0,65.0
Orissa,Koraput,18.82627794779476,82.81278469846964,1379647,678809,700838,568090,340843,227247,196540,697583,85766,3988,17294,41.0,50.0,32.0,103.0,50.0,50.0
Orissa,Malkangiri,18.25227930367506,81.98293636363628,613192,303624,309568,244706,147001,97705,138295,354614,24604,448,3908,40.0,48.0,32.0,102.0,51.0,49.0
Orissa,Mayurbhanj,21.897621545157754,86.4030408052231,2519738,1256213,1263525,1369397,794171,575226,184682,1479576,140189,2950,17999,54.0,63.0,46.0,101.0,49.0,51.0
Orissa,Nayagarh,20.192895622119817,85.05614700460825,962789,502636,460153,688362,392333,296029,136399,58691,124984,1163,8278,71.0,78.0,64.0,92.0,36.0,64.0
Orissa,Nuapada,20.471309512195116,82.59152536585364,610382,301962,308420,299383,180903,118480,82159,206327,43976,757,4221,49.0,60.0,38.0,102.0,50.0,50.0
Orissa,Puri,19.83509174603177,85.86698989898981,1698730,865380,833350,1291939,704857,587082,325133,6129,201605,3416,16006,76.0,81.0,70.0,96.0,37.0,63.0
Orissa,Rayagada,19.292840020060204,83.45860120361095,967911,471960,495951,407735,241959,165776,139514,541905,61543,1553,9166,42.0,51.0,33.0,105.0,48.0,52.0
Orissa,Sambalpur,21.515752380952385,84.34958483245157,1041099,526877,514222,703691,393192,310499,191827,355261,126498,5231,14521,68.0,75.0,60.0,98.0,49.0,51.0
Orissa,Sundargarh,22.06354819277107,84.50524819277099,2093437,1061147,1032290,1342322,750147,592175,191660,1062349,223537,12787,35024,64.0,71.0,57.0,97.0,42.0,58.0
Puducherry,Karaikal,10.876161726078813,79.82369793621002,200222,97809,102413,154916,79903,75013,35348,0,47880,1868,4870,77.0,82.0,73.0,105.0,34.0,66.0
Puducherry,Mahe,12.006420793787758,75.28275021570326,41816,19143,22673,36470,16610,19860,144,0,7150,574,1484,87.0,87.0,88.0,118.0,28.0,72.0
Puducherry,Yanam,16.707695652173904,82.26187304347832,55626,27301,28325,39274,19919,19355,8427,0,12859,207,597,71.0,73.0,68.0,104.0,30.0,70.0
Punjab,Amritsar,31.548679820627772,74.79883856502238,2490656,1318408,1172248,1684770,932981,751789,770864,0,461231,29961,63864,68.0,71.0,64.0,89.0,37.0,63.0
Punjab,Bathinda,30.190524611973352,75.05685898004438,1388525,743197,645328,844868,488261,356607,450473,0,255650,11284,32253,61.0,66.0,55.0,87.0,40.0,60.0
Punjab,Faridkot,30.591187250996025,74.79751553784862,617508,326671,290837,381285,215767,165518,240328,0,113549,4348,12276,62.0,66.0,57.0,89.0,36.0,64.0
Punjab,Fatehgarh Sahib,30.64290947368421,76.36208394736842,600163,320795,279368,426033,238696,187337,192493,0,113683,5138,14294,71.0,74.0,67.0,87.0,36.0,64.0
Punjab,Firozpur,30.63407535211269,74.40245732394365,2029074,1071637,957437,1227511,707070,520441,855726,0,349662,10042,31070,60.0,66.0,54.0,89.0,37.0,63.0
Punjab,Gurdaspur,32.04283371212125,75.3204064393939,2298323,1212617,1085706,1634719,907660,727059,580576,0,411216,14428,38445,71.0,75.0,67.0,90.0,33.0,67.0
Punjab,Hoshiarpur,31.55157169811319,75.8469857442349,1586625,809057,777568,1199699,637927,561772,557504,0,319930,13747,34328,76.0,79.0,72.0,96.0,32.0,68.0
Punjab,Jalandhar,31.250336907216507,75.54400350515463,2193590,1145211,1048379,1622537,882581,739956,854444,0,446200,39082,79134,74.0,77.0,71.0,92.0,35.0,65.0
Punjab,Kapurthala,31.336592638036837,75.47641165644177,815168,426311,388857,576567,316254,260313,276707,0,161206,9732,23145,71.0,74.0,67.0,91.0,35.0,65.0
Punjab,Ludhiana,30.76596397379912,75.83110851528383,3498739,1867816,1630923,2560225,1428348,1131877,923358,0,703624,58589,123400,73.0,76.0,69.0,87.0,37.0,63.0
Punjab,Mansa,29.919547714285724,75.4304922857143,769751,408732,361019,423560,244037,179523,258878,0,140099,2673,10085,55.0,60.0,50.0,88.0,43.0,57.0
Punjab,Moga,30.756540067340065,75.1600845117845,995746,525920,469826,627889,348549,279340,363417,0,183396,7897,21662,63.0,66.0,59.0,89.0,36.0,64.0
Punjab,Muktsar,30.31243303303303,74.5518747747748,901896,475622,426274,524848,300401,224447,381554,0,166585,4571,14077,58.0,63.0,53.0,90.0,37.0,63.0
Punjab,Patiala,30.214540380693364,76.27505893949697,1895686,1002522,893164,1266791,711052,555739,465359,0,352929,24274,55105,67.0,71.0,62.0,89.0,35.0,65.0
Punjab,Rupnagar,30.910937330754347,76.53743500967126,684627,357485,327142,502731,278534,224197,180905,0,129123,6600,17542,73.0,78.0,69.0,92.0,34.0,66.0
Punjab,Sangrur,30.185045204336895,75.89437014178496,1655169,878029,777140,1002077,570413,431664,461609,0,305557,10736,30955,61.0,65.0,56.0,89.0,34.0,66.0
Rajasthan,Ajmer,26.199300378787903,74.6990419191919,2583052,1324085,1258967,1526673,926268,600405,478027,63482,393498,13499,41732,59.0,70.0,48.0,95.0,41.0,59.0
Rajasthan,Alwar,27.55271738035265,76.65359630562563,3674179,1939026,1735153,2182476,1359829,822647,653036,289249,485723,9750,45770,59.0,70.0,47.0,89.0,47.0,53.0
Rajasthan,Banswara,23.453642032967014,74.44246868131869,1797485,907754,889731,829343,513854,315489,80091,1372999,120603,2324,15062,46.0,57.0,35.0,98.0,51.0,49.0
Rajasthan,Baran,24.98023243243244,76.86210651828291,1222755,633945,588810,693307,432607,260700,221184,276857,161310,1363,9491,57.0,68.0,44.0,93.0,45.0,55.0
Rajasthan,Barmer,25.77070908045978,71.50297126436782,2603751,1369022,1234729,1188322,783461,404861,436414,176257,126494,2766,37730,46.0,57.0,33.0,90.0,46.0,54.0
Rajasthan,Bharatpur,27.32411858037578,77.21752077244258,2548462,1355726,1192736,1480869,943910,536959,557305,54090,288723,4179,26106,58.0,70.0,45.0,88.0,42.0,58.0
Rajasthan,Bhilwara,25.45119767759564,74.63947595628417,2408523,1220736,1187787,1256126,777582,478544,407947,229273,373644,6207,24014,52.0,64.0,40.0,97.0,48.0,52.0
Rajasthan,Bikaner,28.12489068322981,73.26943322981371,2363937,1240801,1123136,1278801,782399,496402,493646,7779,220793,7607,29531,54.0,63.0,44.0,91.0,42.0,58.0
Rajasthan,Bundi,25.48580716049379,75.79984074074079,1110906,577160,533746,585044,371705,213339,210788,228549,136969,1392,7705,53.0,64.0,40.0,92.0,47.0,53.0
Rajasthan,Chittaurgarh,24.631623761665463,74.80010997846382,1544338,783171,761167,821825,514851,306974,250224,201546,268172,4941,16560,53.0,66.0,40.0,97.0,52.0,48.0
Rajasthan,Churu,28.29330375536484,74.65846427038629,2039547,1051446,988101,1149269,696729,452540,451721,11245,231696,2577,15259,56.0,66.0,46.0,94.0,44.0,56.0
Rajasthan,Dausa,26.91234817629181,76.57342097264443,1634409,857787,776622,938051,596935,341116,354337,433344,195277,1719,14539,57.0,70.0,44.0,91.0,42.0,58.0
Rajasthan,Dhaulpur,26.72397054945053,77.74476219780222,1206516,653647,552869,683098,435721,247377,245695,58594,96086,1330,9504,57.0,67.0,45.0,85.0,43.0,57.0
Rajasthan,Dungarpur,23.75104807692308,73.84765641025645,1388552,696532,692020,681591,415820,265771,52267,983437,141275,1477,11742,49.0,60.0,38.0,99.0,46.0,54.0
Rajasthan,Ganganagar,29.256785412667963,73.56192303262948,1969168,1043340,925828,1193343,710908,482435,720412,13477,283142,6295,24901,61.0,68.0,52.0,89.0,46.0,54.0
Rajasthan,Hanumangarh,29.1813351791531,74.74632573289902,1774692,931184,843508,1034136,624281,409855,494189,14289,243163,3360,16217,58.0,67.0,49.0,91.0,47.0,53.0
Rajasthan,Jaipur,27.033459290187885,75.77117286012533,6626178,3468507,3157671,4300965,2554793,1746172,1003302,527966,990085,76565,182350,65.0,74.0,55.0,91.0,37.0,63.0
Rajasthan,Jaisalmer,26.86900838548185,71.18371877346682,669919,361708,308211,308653,210415,98238,99134,42429,43141,754,7416,46.0,58.0,32.0,85.0,43.0,57.0
Rajasthan,Jalor,25.07578093797277,72.18647261724662,1828730,936634,892096,829582,543923,285659,357196,178719,161845,1585,12794,45.0,58.0,32.0,95.0,49.0,51.0
Rajasthan,Jhalawar,24.24725541474657,76.11242891705065,1411129,725143,685986,739792,466815,272977,243582,182229,220428,1750,9403,52.0,64.0,40.0,95.0,49.0,51.0
Rajasthan,Jhunjhunun,28.13517401247401,75.52840893970894,2137045,1095896,1041149,1370360,815834,554526,360709,41629,297559,4828,24178,64.0,74.0,53.0,95.0,42.0,58.0
Rajasthan,Jodhpur,26.678460838536967,73.00450847457628,3687165,1923928,1763237,2031532,1265753,765779,608024,118924,408808,19335,54808,55.0,66.0,43.0,92.0,40.0,60.0
Rajasthan,Karauli,26.51901555555556,76.96081818181815,1458248,783639,674609,805849,531904,273945,354465,324960,132079,1059,13045,55.0,68.0,41.0,86.0,43.0,57.0
Rajasthan,Kota,25.175718080000014,76.18618928000001,1951014,1021161,929853,1298345,765396,532949,405408,183816,339899,12843,36297,67.0,75.0,57.0,91.0,38.0,62.0
Rajasthan,Nagaur,27.07862016048146,74.14215667001012,3307743,1696325,1611418,1758624,1102750,655874,699911,10418,347344,4449,35328,53.0,65.0,41.0,95.0,43.0,57.0
Rajasthan,Pali,25.80490393541874,73.55285640766907,2037573,1025422,1012151,1085693,667381,418312,398096,144578,326793,4043,19270,53.0,65.0,41.0,99.0,41.0,59.0
Rajasthan,Rajsamand,25.24894767441859,73.96570215946844,1156597,581339,575258,619139,383334,235805,148168,160809,193276,1989,9222,54.0,66.0,41.0,99.0,48.0,52.0
Rajasthan,Sawai Madhopur,26.251081180223288,76.4219283891548,1335551,704031,631520,741748,486184,255564,278789,285848,140947,1887,14310,56.0,69.0,40.0,90.0,43.0,57.0
Rajasthan,Sikar,27.64644058641976,75.29317422839503,2677333,1374990,1302343,1652117,995275,656842,418806,75349,339457,5647,28382,62.0,72.0,50.0,95.0,38.0,62.0
Rajasthan,Sirohi,24.7976905263158,72.75309131578943,1036346,534231,502115,476806,309900,166906,201863,292470,134089,2146,10297,46.0,58.0,33.0,94.0,41.0,59.0
Rajasthan,Tonk,26.153935071707927,75.79192216427637,1421326,728136,693190,749659,478329,271330,287903,178207,158264,1908,12482,53.0,66.0,39.0,95.0,46.0,54.0
Rajasthan,Udaipur,24.44076752136749,73.84029839743584,3068420,1566801,1501619,1582629,973444,609185,188525,1525289,357846,14211,48517,52.0,62.0,41.0,96.0,45.0,55.0
Sikkim,East,27.29600352941175,88.74908392156858,1709346,907500,801846,1352998,748382,604616,281422,0,352758,80037,127465,79.0,82.0,75.0,88.0,34.0,66.0
Tamil Nadu,Ariyalur,11.190514836795256,79.22249643916912,754894,374703,380191,480604,269582,211022,176230,10722,177502,1749,8371,64.0,72.0,56.0,101.0,48.0,52.0
Tamil Nadu,Chennai,13.058098905608748,80.28139151846806,4646732,2335844,2310888,3776276,1968079,1808197,779667,10061,1096334,217368,355838,81.0,84.0,78.0,99.0,39.0,61.0
Tamil Nadu,Coimbatore,10.871376995940452,77.07619012178621,3458045,1729297,1728748,2635907,1394790,1241117,535911,28342,896325,63273,149920,76.0,81.0,72.0,100.0,45.0,55.0
Tamil Nadu,Cuddalore,11.57587300613498,79.63002365371497,2605914,1311697,1294217,1815281,1000322,814959,763944,15702,598412,15396,50938,70.0,76.0,63.0,99.0,45.0,55.0
Tamil Nadu,Dharmapuri,12.300141200000006,78.11509813333339,1506843,774303,732540,917709,527599,390110,245392,63044,337972,3651,18927,61.0,68.0,53.0,95.0,50.0,50.0
Tamil Nadu,Dindigul,10.377801390820574,77.78011279554937,2159775,1080938,1078837,1481834,816180,665654,452376,8064,500057,9155,38677,69.0,76.0,62.0,100.0,51.0,49.0
Tamil Nadu,Erode,11.267012155963302,77.42034334862392,2251744,1129868,1121876,1492662,828300,664362,369483,21880,595211,18604,58861,66.0,73.0,59.0,99.0,53.0,47.0
Tamil Nadu,Kancheepuram,12.496424756511884,80.08820360135913,3998252,2012958,1985294,3013382,1611461,1401921,948081,41210,961161,100322,200738,75.0,80.0,71.0,99.0,42.0,58.0
Tamil Nadu,Kanniyakumari,8.183466300191206,77.32053064053538,1870374,926345,944029,1548738,780541,768197,74249,7282,465692,15673,52943,83.0,84.0,81.0,102.0,36.0,64.0
Tamil Nadu,Karur,10.79532776617955,78.08749686847604,1064493,528184,536309,727044,401726,325318,221385,575,264949,4915,17995,68.0,76.0,61.0,102.0,51.0,49.0
Tamil Nadu,Madurai,9.904313833333331,78.01366033333332,3038252,1526475,1511777,2273430,1223810,1049620,408976,11096,754141,34097,95311,75.0,80.0,69.0,99.0,45.0,55.0
Tamil Nadu,Nagapattinam,10.789468161718286,79.79437299431483,1616450,798127,818323,1213008,640916,572092,509767,3756,381940,5585,19692,75.0,80.0,70.0,103.0,42.0,58.0
Tamil Nadu,Namakkal,11.33766638477801,78.14624841437633,1726601,869280,857321,1176131,653312,522819,345392,57059,441044,8960,31581,68.0,75.0,61.0,99.0,52.0,48.0
Tamil Nadu,Perambalur,11.260137758112096,78.86034011799416,565223,282157,283066,375823,208011,167812,175289,2584,135751,1507,7745,66.0,74.0,59.0,100.0,53.0,47.0
Tamil Nadu,Pudukkottai,10.130514816433578,79.05444484265728,1618345,803188,815157,1110545,608776,501769,284804,1283,354493,4494,18272,69.0,76.0,62.0,101.0,47.0,53.0
Tamil Nadu,Ramanathapuram,9.31286995153476,78.99185362412462,1353445,682658,670787,978946,536487,442459,249008,1105,291400,5172,22379,72.0,79.0,66.0,98.0,45.0,55.0
Tamil Nadu,Salem,11.629324202127655,78.2478257978723,3482056,1781571,1700485,2285562,1285107,1000455,580512,119369,835377,20660,63867,66.0,72.0,59.0,95.0,49.0,51.0
Tamil Nadu,Sivaganga,9.960306580645158,78.56535729032255,1339101,668672,670429,959744,526304,433440,227746,790,314270,5773,24456,72.0,79.0,65.0,100.0,46.0,54.0
Tamil Nadu,Thanjavur,10.387692255892237,79.3194869107745,2405890,1182416,1223474,1790998,944264,846734,455062,3561,555582,13495,42912,74.0,80.0,69.0,103.0,40.0,60.0
Tamil Nadu,Theni,9.924066666666668,77.43458833333332,1245899,625683,620216,870080,479403,390677,258200,1835,312310,4667,18830,70.0,77.0,63.0,99.0,47.0,53.0
Tamil Nadu,Thiruvallur,13.275858101752885,80.19724702864492,3728104,1876062,1852042,2791721,1495711,1296010,821646,47243,909400,75634,174279,75.0,80.0,70.0,99.0,41.0,59.0
Tamil Nadu,Thiruvarur,10.368927409395978,79.60322893959727,1264277,626693,637584,946471,503085,443386,430927,3034,303114,4416,15535,75.0,80.0,70.0,102.0,43.0,57.0
Tamil Nadu,Tiruvannamalai,12.419318947368414,79.23265631578953,2464875,1235889,1228986,1626813,909803,717010,565329,90954,549077,6445,27529,66.0,74.0,58.0,99.0,50.0,50.0
Tamil Nadu,Vellore,12.784882632293078,79.02643283582084,3936331,1961688,1974643,2773928,1504355,1269573,860212,72955,865913,20623,69912,70.0,77.0,64.0,101.0,43.0,57.0
Tamil Nadu,Virudhunagar,9.468872195892564,77.87641469194315,1942288,967709,974579,1398788,760375,638413,399831,2294,505950,10219,37357,72.0,79.0,66.0,101.0,49.0,51.0
Tripura,Dhalai,23.781360477941163,91.94654283088232,378230,194544,183686,276217,151643,124574,61688,210608,46875,273,5067,73.0,78.0,68.0,94.0,41.0,59.0
Tripura,North Tripura,24.121739755351683,92.17842538226292,693947,352860,341087,520402,275646,244756,114968,179426,81601,997,10310,75.0,78.0,72.0,97.0,36.0,64.0
Tripura,South Tripura,23.211874098057383,91.6065807585568,876001,447544,428457,646810,351082,295728,140168,344835,133744,948,10393,74.0,78.0,69.0,96.0,42.0,58.0
Tripura,West Tripura,23.780166241299337,91.41310788863107,1725739,879428,846311,1361354,722998,638356,338094,431944,314567,6394,36186,79.0,82.0,75.0,96.0,40.0,60.0
Uttar Pradesh,Agra,26.99512974910393,78.05278291517321,4418797,2364953,2053844,2680510,1614594,1065916,991325,7255,536402,27183,82012,61.0,68.0,52.0,87.0,31.0,69.0
Uttar Pradesh,Aligarh,27.93748576850093,78.00146831119557,3673889,1951996,1721893,2092567,1283380,809187,755254,629,268120,13634,58336,57.0,66.0,47.0,88.0,32.0,68.0
Uttar Pradesh,Allahabad,25.392038662316445,82.05172446982063,5954391,3131807,2822584,3665727,2199340,1466387,1309851,7955,391542,24122,85491,62.0,70.0,52.0,90.0,35.0,65.0
Uttar Pradesh,Ambedkar Nagar,26.39119025974028,82.68282142857147,2397888,1212410,1185478,1486939,846676,640263,591125,746,99581,2509,27308,62.0,70.0,54.0,98.0,33.0,67.0
Uttar Pradesh,Auraiya,26.66892394014961,79.42637057356607,1379545,740040,639505,930836,546198,384638,391622,150,65479,2404,14279,67.0,74.0,60.0,86.0,32.0,68.0
Uttar Pradesh,Azamgarh,26.008290954773837,83.01220251256285,4613913,2285004,2328909,2771917,1559414,1212503,1171378,9327,183381,6652,47324,60.0,68.0,52.0,102.0,30.0,70.0
Uttar Pradesh,Baghpat,29.045793499999988,77.30266300000001,1303048,700070,602978,797970,489858,308112,149060,14,119121,2989,19999,61.0,70.0,51.0,86.0,32.0,68.0
Uttar Pradesh,Bahraich,27.691776300578027,81.46779783237004,3487731,1843884,1643847,1398368,878285,520083,509307,11159,85814,2681,35463,40.0,48.0,32.0,89.0,33.0,67.0
Uttar Pradesh,Ballia,25.86075638297873,84.03651978723408,3239774,1672902,1566872,1963590,1160960,802630,494698,110114,119972,4672,42969,61.0,69.0,51.0,94.0,31.0,69.0
Uttar Pradesh,Balrampur,27.449076537911324,82.47158326180256,2148665,1114721,1033944,868357,544943,323414,277212,24887,57400,1551,15510,40.0,49.0,31.0,93.0,35.0,65.0
Uttar Pradesh,Banda,25.351885902503284,80.52487391304344,1799410,965876,833534,1002937,630626,372311,387855,163,73522,1655,18612,56.0,65.0,45.0,86.0,39.0,61.0
Uttar Pradesh,Bara Banki,26.922777025232424,81.35762350597606,3260699,1707073,1553626,1692458,1010518,681940,864559,610,108116,3159,26293,52.0,59.0,44.0,91.0,37.0,63.0
Uttar Pradesh,Bareilly,28.51101940789474,79.43187072368416,4448359,2357665,2090694,2191759,1342697,849062,557150,3227,272830,15164,56575,49.0,57.0,41.0,89.0,32.0,68.0
Uttar Pradesh,Basti,26.833880454545447,82.69790590909092,2464464,1255272,1209192,1393783,819719,574064,513959,3620,108101,3423,30244,57.0,65.0,47.0,96.0,32.0,68.0
Uttar Pradesh,Bijnor,29.313974259681096,78.45098815489754,3682713,1921215,1761498,2135393,1241471,893922,787444,3058,268353,7303,37341,58.0,65.0,51.0,92.0,30.0,70.0
Uttar Pradesh,Bulandshahr,28.34875862068968,78.01082758620684,3499171,1845260,1653911,2031656,1253314,778342,725600,198,223922,7865,38225,58.0,68.0,47.0,90.0,34.0,66.0
Uttar Pradesh,Chandauli,25.1180859611231,83.25307062634984,1952756,1017905,934851,1174606,699454,475152,446786,41725,99602,3492,20762,60.0,69.0,51.0,92.0,33.0,67.0
Uttar Pradesh,Chitrakoot,25.159924623803,81.07666087551297,991730,527721,464009,531072,330339,200733,266655,366,41046,827,9437,54.0,63.0,43.0,88.0,40.0,60.0
Uttar Pradesh,Deoria,26.42218856548857,83.8244070686071,3100946,1537436,1563510,1875239,1079288,795951,468663,109894,150001,4469,36068,60.0,70.0,51.0,102.0,28.0,72.0
Uttar Pradesh,Etah,27.591155309734443,78.70021858407083,1774480,947339,827141,1055202,647042,408160,281011,140,69591,2635,19712,59.0,68.0,49.0,87.0,31.0,69.0
Uttar Pradesh,Etawah,26.78817670157068,79.07621806282728,1581810,845856,735954,1062003,623583,438420,388283,169,113098,2964,21506,67.0,74.0,60.0,87.0,32.0,68.0
Uttar Pradesh,Faizabad,26.60589185185181,82.00783530864202,2470996,1259628,1211368,1450901,838339,612562,555047,931,127754,4746,28625,59.0,67.0,51.0,96.0,34.0,66.0
Uttar Pradesh,Farrukhabad,27.45063297872342,79.4406284574468,1885204,1006240,878964,1092677,654827,437850,312712,230,88081,2624,18733,58.0,65.0,50.0,87.0,31.0,69.0
Uttar Pradesh,Fatehpur,25.8374362030905,80.85416203090509,2632733,1384722,1248011,1512166,911003,601163,651480,340,75263,3385,33501,57.0,66.0,48.0,90.0,40.0,60.0
Uttar Pradesh,Firozabad,27.20963993055552,78.42660624999998,2498156,1332046,1166110,1521806,912314,609492,473890,2565,196080,5834,31797,61.0,68.0,52.0,88.0,30.0,70.0
Uttar Pradesh,Gautam Buddha Nagar,28.393311038961038,77.52462467532465,1648115,890214,757901,1122947,666065,456882,216105,2215,257586,53181,87188,68.0,75.0,60.0,85.0,35.0,65.0
Uttar Pradesh,Ghaziabad,28.74997308584685,77.67441879350343,4681645,2488834,2192811,3123264,1811397,1311867,773463,3968,695130,78116,179552,67.0,73.0,60.0,88.0,32.0,68.0
Uttar Pradesh,Ghazipur,25.624724775583484,83.5360854578097,3620268,1855075,1765193,2197549,1293553,903996,726641,28712,105767,5309,50180,61.0,70.0,51.0,95.0,33.0,67.0
Uttar Pradesh,Gonda,27.157215552099505,82.0226888024882,3433919,1787146,1646773,1679994,1034181,645813,531973,870,104084,4313,31811,49.0,58.0,39.0,92.0,34.0,66.0
Uttar Pradesh,Gorakhpur,26.63315886792452,83.3549560377358,4440895,2277777,2163118,2700328,1593890,1106438,936061,18172,296619,14597,65360,61.0,70.0,51.0,95.0,30.0,70.0
Uttar Pradesh,Hamirpur,25.738158381502892,79.82619479768789,454768,217070,237698,358091,180555,177536,109256,3044,104120,2521,7525,79.0,83.0,75.0,110.0,53.0,47.0
Uttar Pradesh,Hamirpur,25.738158381502892,79.82619479768789,1104285,593537,510748,653299,408125,245174,241198,474,55929,1196,11037,59.0,69.0,48.0,86.0,40.0,60.0
Uttar Pradesh,Hardoi,27.337409090909137,80.26411767676768,4092845,2191442,1901403,2221601,1374587,847014,1274505,349,95508,3845,32065,54.0,63.0,45.0,87.0,32.0,68.0
Uttar Pradesh,Jalaun,26.067954587155988,79.36686911314993,1689974,906092,783882,1075196,653430,421766,468178,832,104176,2217,18615,64.0,72.0,54.0,87.0,37.0,63.0
Uttar Pradesh,Jaunpur,25.70141280913127,82.54315351934063,4494204,2220465,2273739,2731677,1565394,1166283,990345,4736,181467,8002,52398,61.0,70.0,51.0,102.0,32.0,68.0
Uttar Pradesh,Jhansi,25.45581535234902,78.89954580536917,1998603,1057436,941167,1304513,783705,520808,562505,3873,183340,8517,40774,65.0,74.0,55.0,89.0,41.0,59.0
Uttar Pradesh,Jyotiba Phule Nagar,28.870498984771597,78.39009365482241,1840221,963449,876772,983110,600541,382569,318001,164,89329,2825,18303,53.0,62.0,44.0,91.0,33.0,67.0
Uttar Pradesh,Kannauj,26.993988617886185,79.64437940379408,1656616,881776,774840,1017087,603596,413491,309980,15,61491,2488,18082,61.0,68.0,53.0,88.0,32.0,68.0
Uttar Pradesh,Kanpur Dehat,26.43047641196011,79.98710083056478,1796184,963255,832929,1170243,692964,477279,460544,801,49753,2682,25354,65.0,72.0,57.0,86.0,35.0,65.0
Uttar Pradesh,Kaushambi,25.53587532051282,81.41811282051287,1599596,838485,761111,813424,507279,306145,555397,193,43753,1503,15029,51.0,60.0,40.0,91.0,40.0,60.0
Uttar Pradesh,Kushinagar,26.892530675909864,83.92261542461007,3564544,1818055,1746489,1954820,1183722,771098,544231,80269,127331,3486,35931,55.0,65.0,44.0,96.0,31.0,69.0
Uttar Pradesh,Lalitpur,24.58877161016945,78.60082330508473,1221592,641011,580581,641191,397586,243605,240519,71610,77082,1079,9906,52.0,62.0,42.0,91.0,41.0,59.0
Uttar Pradesh,Lucknow,26.838233589251463,80.89706026871404,4589838,2394476,2195362,3127260,1742440,1384820,948294,7506,582769,68506,152257,68.0,73.0,63.0,92.0,34.0,66.0
Uttar Pradesh,Mahoba,25.34529670138888,79.67863003472216,875958,466358,409600,488106,302283,185823,220898,647,42936,1316,11298,56.0,65.0,45.0,88.0,40.0,60.0
Uttar Pradesh,Mainpuri,27.17386862302482,79.03501851015807,1868529,993377,875152,1203885,712110,491775,368206,478,79022,2642,24451,64.0,72.0,56.0,88.0,30.0,70.0
Uttar Pradesh,Mathura,27.59390432801821,77.62153416856502,2547184,1367125,1180059,1507746,943346,564400,506580,1520,281239,8726,37596,59.0,69.0,48.0,86.0,33.0,67.0
Uttar Pradesh,Mau,26.01082203791469,83.50582654028433,2205968,1114709,1091259,1363044,773082,589962,474537,22915,149908,2656,26716,62.0,69.0,54.0,98.0,32.0,68.0
Uttar Pradesh,Meerut,29.02957625698323,77.80611005586593,3443689,1825743,1617946,2141488,1254520,886968,624149,3390,425624,23717,69473,62.0,69.0,55.0,89.0,32.0,68.0
Uttar Pradesh,Mirzapur,25.10207959183675,82.60126628571429,2496970,1312302,1184668,1428683,865837,562846,661129,20132,145997,4447,24518,57.0,66.0,48.0,90.0,35.0,65.0
Uttar Pradesh,Moradabad,28.851770406189537,78.73580193423597,4772006,2503186,2268820,2263848,1357435,906413,731406,685,281758,11690,61846,47.0,54.0,40.0,91.0,30.0,70.0
Uttar Pradesh,Muzaffarnagar,29.470507977736563,77.64017847866423,4143512,2193434,1950078,2417339,1448528,968811,561250,317,368153,10077,56149,58.0,66.0,50.0,89.0,31.0,69.0
Uttar Pradesh,Pilibhit,28.52024175035868,79.90103974175037,2031007,1072002,959005,1061095,654290,406805,333558,1714,83006,2870,18097,52.0,61.0,42.0,89.0,30.0,70.0
Uttar Pradesh,Pratapgarh,25.864842731707316,81.93530048780492,867848,437744,430104,401515,250122,151393,60429,550427,71612,716,5961,46.0,57.0,35.0,98.0,55.0,45.0
Uttar Pradesh,Pratapgarh,25.864842731707316,81.93530048780492,3209141,1606085,1603056,1931559,1121381,810178,709252,723,140538,5149,34400,60.0,70.0,51.0,100.0,33.0,67.0
Uttar Pradesh,Rae Bareli,26.253902840059787,81.22260463378181,3405559,1752542,1653017,1965843,1165965,799878,1030367,1756,247856,5184,34788,58.0,67.0,48.0,94.0,35.0,65.0
Uttar Pradesh,Rampur,28.83244727272725,79.10977333333337,2335819,1223889,1111930,1043666,630408,413258,307936,358,131112,3847,25960,45.0,52.0,37.0,91.0,32.0,68.0
Uttar Pradesh,Saharanpur,30.03381165217392,77.59905147826095,3466382,1834106,1632276,2077108,1220114,856994,764450,980,404499,9699,38816,60.0,67.0,53.0,89.0,30.0,70.0
Uttar Pradesh,Sant Kabir Nagar,26.791596516393444,83.0387764344262,1715183,869656,845527,954949,567098,387851,369039,1593,79525,2031,19729,56.0,65.0,46.0,97.0,31.0,69.0
Uttar Pradesh,Shahjahanpur,27.991389350649328,79.8302275324675,3006538,1606403,1400135,1490930,915142,575788,532673,508,115163,3889,27533,50.0,57.0,41.0,87.0,30.0,70.0
Uttar Pradesh,Sitapur,27.501995963091108,80.85288881199547,4483992,2375264,2108728,2283733,1397702,886031,1446427,1602,102040,3874,34609,51.0,59.0,42.0,89.0,32.0,68.0
Uttar Pradesh,Sonbhadra,24.46693268858798,83.06816324951639,1862559,971344,891215,985708,601988,383720,421661,385018,95582,5149,25220,53.0,62.0,43.0,92.0,39.0,61.0
Uttar Pradesh,Sultanpur,26.2846386419753,82.05710456790123,3797117,1914586,1882531,2239902,1300248,939654,851587,696,233701,5956,44008,59.0,68.0,50.0,98.0,33.0,67.0
Uttar Pradesh,Unnao,26.63163990895297,80.636773292868,3108367,1630087,1478280,1773584,1053063,720521,948588,2926,99466,3476,28719,57.0,65.0,49.0,91.0,36.0,64.0
Uttar Pradesh,Varanasi,25.36057088888889,82.82529666666672,3676841,1921857,1754984,2403903,1389116,1014787,486958,28617,336056,19214,57583,65.0,72.0,58.0,91.0,33.0,67.0
Uttaranchal,Almora,29.683532133676103,79.50165064267351,622506,291081,331425,436497,231604,204893,150995,1281,109876,1830,9858,70.0,80.0,62.0,114.0,48.0,52.0
Uttaranchal,Bageshwar,29.98703393393397,79.83954354354357,259898,124326,135572,179483,97546,81937,72061,1982,47083,435,3595,69.0,78.0,60.0,109.0,48.0,52.0
Uttaranchal,Chamoli,30.58338611464965,79.56281095541402,391605,193991,197614,280556,155395,125161,79317,12260,71524,899,5582,72.0,80.0,63.0,102.0,46.0,54.0
Uttaranchal,Champawat,29.29142393939393,80.07720212121217,259648,131125,128523,177726,102015,75711,47383,1339,37725,548,3159,68.0,78.0,59.0,98.0,38.0,62.0
Uttaranchal,Pithoragarh,30.14720631868129,80.34229230769236,483439,239306,244133,345550,189623,155927,120378,19535,95421,1344,7932,71.0,79.0,64.0,102.0,45.0,55.0
Uttaranchal,Tehri Garhwal,30.463700918635173,78.48783792650917,618931,297986,320945,407994,227406,180588,102130,875,117239,1366,7831,66.0,76.0,56.0,108.0,45.0,55.0
Uttaranchal,Udham Singh Nagar,29.02779577677222,79.45629004524895,1648902,858783,790119,1037839,598525,439314,238264,123037,254802,7883,28053,63.0,70.0,56.0,92.0,36.0,64.0
Uttaranchal,Uttarkashi,30.968958552036234,78.56880615384617,330086,168597,161489,215126,128237,86889,80567,3512,52621,602,4104,65.0,76.0,54.0,96.0,48.0,52.0
West Bengal,Bankura,23.081280892857155,87.12640053571437,3596674,1838095,1758579,2232992,1299337,933655,1174447,368690,334670,4273,34128,62.0,71.0,53.0,96.0,41.0,59.0
West Bengal,Barddhaman,23.444453888888884,87.8150581111111,7717563,3966889,3750674,5247208,2918040,2329168,2115719,489447,1049943,32323,141387,68.0,74.0,62.0,95.0,38.0,62.0
West Bengal,Birbhum,24.06389342723,87.65153089201888,3502404,1790920,1711484,2158447,1201481,956966,1033140,242484,333752,5210,39636,62.0,67.0,56.0,96.0,38.0,62.0
West Bengal,Dakshin Dinajpur,25.342094363021435,88.69821679819614,1676276,857199,819077,1083685,596474,487211,482754,275366,168069,2518,24318,65.0,70.0,59.0,96.0,42.0,58.0
West Bengal,Darjiling,26.839619571045585,88.33145067024122,1846823,937259,909564,1315585,717673,597912,317275,397389,297176,10943,38065,71.0,77.0,66.0,97.0,37.0,63.0
West Bengal,Haora,22.401674174428507,87.99421176968654,4850029,2500819,2349210,3605206,1942824,1662382,718951,15094,796953,30751,99261,74.0,78.0,71.0,94.0,38.0,62.0
West Bengal,Hugli,22.87929264705881,88.00010264705891,5519145,2814653,2704492,4078388,2211777,1866611,1344021,229243,965258,31725,118459,74.0,79.0,69.0,96.0,39.0,61.0
West Bengal,Jalpaiguri,26.62642031250004,89.04154375000003,3872846,1983064,1889782,2498780,1396622,1102158,1458278,731704,382500,9322,48818,65.0,70.0,58.0,95.0,39.0,61.0
West Bengal,Kolkata,22.550581481481483,88.3527648148148,4496694,2356766,2139928,3588137,1926915,1661222,241932,10684,927602,136618,252644,80.0,82.0,78.0,91.0,40.0,60.0
West Bengal,Maldah,25.08026802575105,88.17191684549356,3988845,2051541,1937304,2086432,1152019,934413,835430,313984,297716,5357,63525,52.0,56.0,48.0,94.0,39.0,61.0
West Bengal,Murshidabad,24.25950655391121,88.16816860465121,7103807,3627564,3476243,4055834,2177187,1878647,897534,91035,541169,7951,79729,57.0,60.0,54.0,96.0,36.0,64.0
West Bengal,Nadia,23.56410971055088,88.58293034547152,5167600,2653768,2513832,3480555,1878866,1601689,1546917,140700,623729,12787,77210,67.0,71.0,64.0,95.0,36.0,64.0
West Bengal,Puruliya,23.254192328767108,86.3968532876713,2930115,1496996,1433119,1624905,1002058,622847,567767,540652,189889,3551,32862,55.0,67.0,43.0,96.0,43.0,57.0
West Bengal,Uttar Dinajpur,26.044619165196977,88.23595232216337,3007134,1551066,1456068,1489667,853495,636172,807950,162816,199307,2883,31210,50.0,55.0,44.0,94.0,36.0,64.0
